"locality","decimalLatitude","decimalLongitude","locationID","tmp_vatnLnr","decimalLongitude1","municipality","county","countryCode"
"Bjorvann",59.1143526760638,8.9023533566494,"NVE:vatnLnr:1239",1239,8.9023533566494,"Drangedal","Telemark","NOR"
"Buvatnet",60.6567018661528,9.30631242401918,"NVE:vatnLnr:7059",7059,9.30631242401918,"Nes","Buskerud","NOR"
"Snausvatnet",63.0477626370972,9.44820489586902,"NVE:vatnLnr:37984",37984,9.44820489586902,"Meldal","Sør-Trøndelag","NOR"
"Bergsvatnet",60.3092153725152,6.16026252668666,"NVE:vatnLnr:26869",26869,6.16026252668666,"Kvam","Hordaland","NOR"
"Åsvatnet",58.6589197101267,8.93146210383011,"NVE:vatnLnr:9749",9749,8.93146210383011,"Tvedestrand","Aust-Agder","NOR"
"Fjellvatnet",65.2568372869208,12.6018057386409,"NVE:vatnLnr:452",452,12.6018057386409,"Bindal","Nordland","NOR"
"Eidvatnet",65.2448708158937,12.4881563909306,"NVE:vatnLnr:451",451,12.4881563909306,"Bindal","Nordland","NOR"
"Grønlibukta",64.3474002231325,11.8357075144479,"NVE:vatnLnr:40444",40444,11.8357075144479,"Overhalla","Nord-Trøndelag","NOR"
"Møkkelvatnet",64.4950216146129,12.6390771125502,"NVE:vatnLnr:713",713,12.6390771125502,"Grong","Nord-Trøndelag","NOR"
"Åkvikvatnet",63.340373600244,8.48600710238576,"NVE:vatnLnr:36395",36395,8.48600710238576,"Aure","Møre og Romsdal","NOR"
"Stølsvatnet",61.6231653758105,6.00362643152832,"NVE:vatnLnr:28286",28286,6.00362643152832,"Naustdal","Sogn og Fjordane","NOR"
"Kleivatjørni",60.8349459973658,6.31296160172282,"NVE:vatnLnr:151727",151727,6.31296160172282,"Vaksdal","Hordaland","NOR"
"Tvittingen",59.2361375275708,9.50424492845794,"NVE:vatnLnr:6569",6569,9.50424492845794,"Skien","Telemark","NOR"
"Småvatnet",60.353735008922,5.20110479669951,"NVE:vatnLnr:26736",26736,5.20110479669951,"Bergen","Hordaland","NOR"
"Flassavatnet",58.7889545793212,5.8688885277061,"NVE:vatnLnr:1549",1549,5.8688885277061,"Sandnes","Rogaland","NOR"
"Nedra Forevatnet",58.4997883071441,5.88061551608499,"NVE:vatnLnr:21086",21086,5.88061551608499,"Eigersund","Rogaland","NOR"
"Sangeslandsvannet",58.2902434453628,7.80113327413676,"NVE:vatnLnr:11144",11144,7.80113327413676,"Vennesla","Vest-Agder","NOR"
"Røynevannet",58.412957037566,8.55567732405216,"NVE:vatnLnr:10859",10859,8.55567732405216,"Arendal","Aust-Agder","NOR"
"Savannet",58.7215393429633,8.99733962209908,"NVE:vatnLnr:9383",9383,8.99733962209908,"Risør","Aust-Agder","NOR"
"Lindlandsvannet",58.7106520566356,9.01974337569299,"NVE:vatnLnr:9433",9433,9.01974337569299,"Risør","Aust-Agder","NOR"
"Tørråssjøen",60.7429991216321,11.8458099652906,"NVE:vatnLnr:3727",3727,11.8458099652906,"Våler","Hedmark","NOR"
"Uhcavuonjávri",69.5518469670412,29.9643651073229,"NVE:vatnLnr:2459",2459,29.9643651073229,"Sør-Varanger","Finnmark","NOR"
"Mæna",60.4483394990993,10.4668836475085,"NVE:vatnLnr:4718",4718,10.4668836475085,"Gran","Oppland","NOR"
"Næra",61.0122576023929,10.7180307153801,"NVE:vatnLnr:196",196,10.7180307153801,"Ringsaker","Hedmark","NOR"
"Skardtjønnet",61.4778353777089,10.0737416287361,"NVE:vatnLnr:32559",32559,10.0737416287361,"Ringebu","Oppland","NOR"
"Småhårrtjønne",61.7919438920575,9.62763879231036,"NVE:vatnLnr:87403",87403,9.62763879231036,"Sel","Oppland","NOR"
"Hesstjønne",61.7559856101836,9.64694302814515,"NVE:vatnLnr:81153",81153,9.64694302814515,"Sel","Oppland","NOR"
"Visterflo",59.2946478476908,11.0039511459833,"NVE:vatnLnr:5858",5858,11.0039511459833,"Sarpsborg","Ãstfold","NOR"
"Storsjøen",60.3626973047429,11.6528891336269,"NVE:vatnLnr:120",120,11.6528891336269,"Nord-Odal","Hedmark","NOR"
"Øyeren",59.7927017912464,11.2028588870575,"NVE:vatnLnr:113",113,11.2028588870575,"Enebakk","Akershus","NOR"
"Østensjøvannet",59.8893581618789,10.8294244675331,"NVE:vatnLnr:2513",2513,10.8294244675331,"Oslo","Oslo","NOR"
"Årungen",59.688541195114,10.7448379887535,"NVE:vatnLnr:296",296,10.7448379887535,"Frogn","Akershus","NOR"
"Kjølasjøen",59.2053370577383,11.4301675019954,"NVE:vatnLnr:3521",3521,11.4301675019954,"Halden","Ãstfold","NOR"
"Ørsjøen",59.0306283509576,11.5575959327302,"NVE:vatnLnr:345",345,11.5575959327302,"Halden","Ãstfold","NOR"
"Øymarksjøen",59.3744606533997,11.6599820421806,"NVE:vatnLnr:4983",4983,11.6599820421806,"Marker","Ãstfold","NOR"
"Hærsetsjøen",59.6499836153472,11.3845350565434,"NVE:vatnLnr:3326",3326,11.3845350565434,"Trøgstad","Ãstfold","NOR"
"Langvatnet",64.1332184515176,12.9013972259002,"NVE:vatnLnr:1145",1145,12.9013972259002,"Snåsa","Nord-Trøndelag","NOR"
"Lakatjønna",63.8852723126983,12.3483752848787,"NVE:vatnLnr:38173",38173,12.3483752848787,"Verdal","Nord-Trøndelag","NOR"
"Lakavatnet",63.9177290683466,12.5085671739525,"NVE:vatnLnr:38132",38132,12.5085671739525,"Verdal","Nord-Trøndelag","NOR"
"Storbellingen",63.7164490658887,12.267322128977,"NVE:vatnLnr:924",924,12.267322128977,"Verdal","Nord-Trøndelag","NOR"
"Rundtjønna",62.459671052798,11.9028499437396,"NVE:vatnLnr:35443",35443,11.9028499437396,"Røros","Sør-Trøndelag","NOR"
"Glen",61.8685184573018,12.0531495777922,"NVE:vatnLnr:33303",33303,12.0531495777922,"Engerdal","Hedmark","NOR"
"Søndre Åklangen",60.0688358792194,12.1335419508604,"NVE:vatnLnr:4308",4308,12.1335419508604,"Eidskog","Hedmark","NOR"
"Nordre Åklangen",60.0966048040696,12.1207366953297,"NVE:vatnLnr:4272",4272,12.1207366953297,"Eidskog","Hedmark","NOR"
"Øyvatnet",58.4604010085547,7.57202026871216,"NVE:vatnLnr:10696",10696,7.57202026871216,"Marnardal","Vest-Agder","NOR"
"Øvre Øydnevatn",58.4032001792211,7.38213294203746,"NVE:vatnLnr:1224",1224,7.38213294203746,"Audnedal","Vest-Agder","NOR"
"Åsevatnet",58.153212557419,7.52351723904112,"NVE:vatnLnr:66545",66545,7.52351723904112,"Mandal","Vest-Agder","NOR"
"Øvre Håvann",58.1255398785085,7.76034616883455,"NVE:vatnLnr:11590",11590,7.76034616883455,"Søgne","Vest-Agder","NOR"
"Rossevannet",58.4702669758037,8.66132269197129,"NVE:vatnLnr:10695",10695,8.66132269197129,"Arendal","Aust-Agder","NOR"
"Østigardstjenn",58.7334464386639,9.05220768615256,"NVE:vatnLnr:9332",9332,9.05220768615256,"Risør","Aust-Agder","NOR"
"Uvann",58.7302254378365,8.98239268394182,"NVE:vatnLnr:9345",9345,8.98239268394182,"Vegårshei","Aust-Agder","NOR"
"Dalsvatn",59.3969282342747,8.74492111559958,"NVE:vatnLnr:13969",13969,8.74492111559958,"Seljord","Telemark","NOR"
"Hjartsjåvatnet",59.6044227747105,8.73823936958933,"NVE:vatnLnr:30",30,8.73823936958933,"Hjartdal","Telemark","NOR"
"Langen",59.2283751277625,9.15943063486838,"NVE:vatnLnr:45",45,9.15943063486838,"Nome","Telemark","NOR"
"Noremstjørnane",59.3490053494262,9.08469007741498,"NVE:vatnLnr:14127",14127,9.08469007741498,"Nome","Telemark","NOR"
"Reiarsvann",59.1769286698673,9.29342878849165,"NVE:vatnLnr:6610",6610,9.29342878849165,"Skien","Telemark","NOR"
"Langen",59.0455278726143,9.41921371956789,"NVE:vatnLnr:111",111,9.41921371956789,"Bamble","Telemark","NOR"
"Kroktjenn",58.840282979604,9.22393494236513,"NVE:vatnLnr:8660",8660,9.22393494236513,"Kragerø","Telemark","NOR"
"Heievannet",59.5322204821956,9.56061176144777,"NVE:vatnLnr:6328",6328,9.56061176144777,"Kongsberg","Buskerud","NOR"
"Øksne",59.5976490821419,9.48262479374564,"NVE:vatnLnr:6249",6249,9.48262479374564,"Kongsberg","Buskerud","NOR"
"Skjærsvannet",59.8836821391635,10.1901080740744,"NVE:vatnLnr:5399",5399,10.1901080740744,"Lier","Buskerud","NOR"
"Vannen",60.8356393475873,8.73905073983551,"NVE:vatnLnr:533",533,8.73905073983551,"Hemsedal","Buskerud","NOR"
"Buvatnet",60.4079031431571,9.76401232953942,"NVE:vatnLnr:7241",7241,9.76401232953942,"Flå","Buskerud","NOR"
"Øvstevatnet",60.4051545579628,9.70418124934194,"NVE:vatnLnr:7242",7242,9.70418124934194,"Flå","Buskerud","NOR"
"Åsterudtjern",60.0653538066067,10.0401927715473,"NVE:vatnLnr:5166",5166,10.0401927715473,"Ringerike","Buskerud","NOR"
"Øyangen",60.1721033114181,10.4385330414822,"NVE:vatnLnr:604",604,10.4385330414822,"Ringerike","Buskerud","NOR"
"Holsfjorden",60.0348736963674,10.2001467021045,"NVE:vatnLnr:522",522,10.2001467021045,"Hole","Buskerud","NOR"
"Steinsetfjorden",61.0514465874762,9.42922283420222,"NVE:vatnLnr:559",559,9.42922283420222,"Etnedal","Oppland","NOR"
"Livatnet",61.007012139919,9.90257400977439,"NVE:vatnLnr:33230",33230,9.90257400977439,"Nordre Land","Oppland","NOR"
"Buvatnet",60.9241986361623,9.88281796382235,"NVE:vatnLnr:6856",6856,9.88281796382235,"Nordre Land","Oppland","NOR"
"Kauserudtjernet",60.6912032544754,10.7276545611018,"NVE:vatnLnr:4527",4527,10.7276545611018,"Vestre Toten","Oppland","NOR"
"Store Øyungen",60.5602510436722,10.9967248350879,"NVE:vatnLnr:4620",4620,10.9967248350879,"Østre Toten","Oppland","NOR"
"Hutjerna",60.5692656423854,10.8819521021677,"NVE:vatnLnr:4609",4609,10.8819521021677,"Østre Toten","Oppland","NOR"
"Skonnolstjernet",60.8782635032831,10.4063977484699,"NVE:vatnLnr:4455",4455,10.4063977484699,"Gjøvik","Oppland","NOR"
"Røstadvatnet",60.9140140204199,10.2734404277902,"NVE:vatnLnr:4442",4442,10.2734404277902,"Gjøvik","Oppland","NOR"
"Haustsætertjønnet",61.5064008849197,10.0973857620232,"NVE:vatnLnr:32525",32525,10.0973857620232,"Ringebu","Oppland","NOR"
"Runddalssjøen",61.2622875159914,11.4345965497202,"NVE:vatnLnr:33614",33614,11.4345965497202,"Åmot","Hedmark","NOR"
"Lognsjøen",60.4949882379737,11.4236942275493,"NVE:vatnLnr:3905",3905,11.4236942275493,"Nord-Odal","Hedmark","NOR"
"Søre Åborsjøen",61.5727384403748,10.1067059599442,"NVE:vatnLnr:32469",32469,10.1067059599442,"Ringebu","Oppland","NOR"
"Øyangen",61.4535042913167,9.84568874586965,"NVE:vatnLnr:32582",32582,9.84568874586965,"Sør-Fron","Oppland","NOR"
"Glen",61.9575829901223,12.1114338221446,"NVE:vatnLnr:33266",33266,12.1114338221446,"Engerdal","Hedmark","NOR"
"Søndre Øyersjøen",60.2251548799699,12.4482533035266,"NVE:vatnLnr:361",361,12.4482533035266,"Kongsvinger","Hedmark","NOR"
"Trøsjøen",60.230304203177,12.2716246756444,"NVE:vatnLnr:4132",4132,12.2716246756444,"Kongsvinger","Hedmark","NOR"
"Nordre Øyersjøen",60.237446055842,12.4416471321019,"NVE:vatnLnr:4123",4123,12.4416471321019,"Kongsvinger","Hedmark","NOR"
"Ålsjøen",60.0073815667486,12.0518961566253,"NVE:vatnLnr:4408",4408,12.0518961566253,"Eidskog","Hedmark","NOR"
"Søndre Øyungen",60.099675295455,12.1956521339699,"NVE:vatnLnr:369",369,12.1956521339699,"Eidskog","Hedmark","NOR"
"Øysjøen",59.9384111405259,11.8265545692234,"NVE:vatnLnr:356",356,11.8265545692234,"Eidskog","Hedmark","NOR"
"Kinntjernet",61.0309110418759,10.580981725896,"NVE:vatnLnr:33201",33201,10.580981725896,"Ringsaker","Hedmark","NOR"
"Askeviktjenn",59.807631157247,11.8039537261914,"NVE:vatnLnr:3210",3210,11.8039537261914,"Aurskog-Høland","Akershus","NOR"
"Hogstadvannet",59.8334629238539,10.4017766840265,"NVE:vatnLnr:5491",5491,10.4017766840265,"Asker","Akershus","NOR"
"Øyungen",60.044301509767,10.7421075493037,"NVE:vatnLnr:5170",5170,10.7421075493037,"Oslo","Oslo","NOR"
"Kjølasjøen",59.1961427139831,11.4091025936455,"NVE:vatnLnr:3528",3528,11.4091025936455,"Halden","Ãstfold","NOR"
"Store Le",59.3090773296565,11.7910264793533,"NVE:vatnLnr:374",374,11.7910264793533,"Aremark","Ãstfold","NOR"
"Gátterjávri",68.3913308954072,18.0907598311201,"NVE:vatnLnr:49506",49506,18.0907598311201,"Narvik","Nordland","NOR"
"Åsvatnet",58.7420921703668,5.76436298994793,"NVE:vatnLnr:20113",20113,5.76436298994793,"Time","Rogaland","NOR"
"Litjern",58.6725291162485,9.06964239482286,"NVE:vatnLnr:9685",9685,9.06964239482286,"Tvedestrand","Aust-Agder","NOR"
"Kleivekilen",58.6643717292649,8.82505938828588,"NVE:vatnLnr:1257",1257,8.82505938828588,"Vegårshei","Aust-Agder","NOR"
"Pardisfjorden",60.8697962294264,9.27415285561245,"NVE:vatnLnr:567",567,9.27415285561245,"Nord-Aurdal","Oppland","NOR"
"Vesthåen",61.9353254546138,11.5989459303411,"NVE:vatnLnr:1354",1354,11.5989459303411,"Rendalen","Hedmark","NOR"
"Øyangen",60.3687823562149,10.9063830723925,"NVE:vatnLnr:251",251,10.9063830723925,"Hurdal","Akershus","NOR"
"Aglvatnet",64.6283145500909,11.1009620601592,"NVE:vatnLnr:39602",39602,11.1009620601592,"Namsos","Nord-Trøndelag","NOR"
"Topptjønnan",63.7604498216949,10.2770576911789,"NVE:vatnLnr:37017",37017,10.2770576911789,"Rissa","Sør-Trøndelag","NOR"
"Skausetvatnet",63.1875723518152,8.42137547149784,"NVE:vatnLnr:36517",36517,8.42137547149784,"Aure","Møre og Romsdal","NOR"
"Osvatnet",62.801252025886,7.78924086665366,"NVE:vatnLnr:2001",2001,7.78924086665366,"Molde","Møre og Romsdal","NOR"
"Nedstevatnet",62.0376920928759,6.04785524327534,"NVE:vatnLnr:31061",31061,6.04785524327534,"Volda","Møre og Romsdal","NOR"
"Ølvatnet",60.6217327615752,5.11728811511377,"NVE:vatnLnr:26360",26360,5.11728811511377,"Radøy","Hordaland","NOR"
"Sandvikavatnet",60.6131122139878,5.35333653936022,"NVE:vatnLnr:26376",26376,5.35333653936022,"Lindås","Hordaland","NOR"
"Eikeklettvatnet",60.6100639726594,5.37435453585134,"NVE:vatnLnr:26384",26384,5.37435453585134,"Lindås","Hordaland","NOR"
"Hetleflotvatnet",60.2318053805901,5.4649389572007,"NVE:vatnLnr:2056",2056,5.4649389572007,"Os","Hordaland","NOR"
"Vinddalsvatnet",60.226052018863,5.44076187826998,"NVE:vatnLnr:26934",26934,5.44076187826998,"Os","Hordaland","NOR"
"Ådlandsvatnet",59.7952972325263,5.48461846910682,"NVE:vatnLnr:1491",1491,5.48461846910682,"Stord","Hordaland","NOR"
"Storvåvatnet",65.0400905778658,12.0402569896642,"NVE:vatnLnr:449",449,12.0402569896642,"Nærøy","Nord-Trøndelag","NOR"
"Statlandvatnet",64.463587065244,11.1352329376618,"NVE:vatnLnr:682",682,11.1352329376618,"Mandalseid","Nord-Trøndelag","NOR"
"Svorttjønna",64.7332041428037,12.24370160648,"NVE:vatnLnr:39334",39334,12.24370160648,"Høylandet","Nord-Trøndelag","NOR"
"Mastervikvatnet",64.6237066520588,11.4809821613881,"NVE:vatnLnr:68008",68008,11.4809821613881,"Fosnes","Nord-Trøndelag","NOR"
"Ålvatnet",64.4046218144015,11.8942551932978,"NVE:vatnLnr:40249",40249,11.8942551932978,"Overhalla","Nord-Trøndelag","NOR"
"Tunnsjøen",64.7122774559655,13.3998866128271,"NVE:vatnLnr:696",696,13.3998866128271,"Lierne","Nord-Trøndelag","NOR"
"Vester-Rømmervatnet",64.5463393843819,13.6215686642418,"NVE:vatnLnr:39706",39706,13.6215686642418,"Lierne","Nord-Trøndelag","NOR"
"Auster-Rømmervatnet",64.5422425868741,13.6493877671669,"NVE:vatnLnr:1132",1132,13.6493877671669,"Lierne","Nord-Trøndelag","NOR"
"Bjørtjønna",64.1306979687023,14.0255855554155,"NVE:vatnLnr:41168",41168,14.0255855554155,"Lierne","Nord-Trøndelag","NOR"
"Storola-tjønnin",64.4069177346805,13.4401739582933,"NVE:vatnLnr:40127",40127,13.4401739582933,"Lierne","Nord-Trøndelag","NOR"
"Raudsjøen",64.1088266780482,11.8802127332243,"NVE:vatnLnr:41491",41491,11.8802127332243,"Steinkjer","Nord-Trøndelag","NOR"
"Øyingen",64.1180968798311,11.9967845969552,"NVE:vatnLnr:936",936,11.9967845969552,"Steinkjer","Nord-Trøndelag","NOR"
"Åsvatnet",64.0942432296752,11.9055773929,"NVE:vatnLnr:41534",41534,11.9055773929,"Steinkjer","Nord-Trøndelag","NOR"
"Augvatnet",63.8152449508657,10.5158880692118,"NVE:vatnLnr:36927",36927,10.5158880692118,"Verran","Nord-Trøndelag","NOR"
"Orvatnet",63.8265623919307,10.581765342434,"NVE:vatnLnr:36903",36903,10.581765342434,"Verran","Nord-Trøndelag","NOR"
"Langen",63.8157329984942,10.8310281879692,"NVE:vatnLnr:36923",36923,10.8310281879692,"Mosvik","Nord-Trøndelag","NOR"
"Rørvatnet",63.7200959864651,10.4476822926422,"NVE:vatnLnr:37071",37071,10.4476822926422,"Leksvik","Nord-Trøndelag","NOR"
"Nautsundvatnet",61.2523482037592,5.4012490864684,"NVE:vatnLnr:28684",28684,5.4012490864684,"Fjaler","Sogn og Fjordane","NOR"
"Røyrdalsvatnet",60.9513785154837,5.73988428977805,"NVE:vatnLnr:25880",25880,5.73988428977805,"Masfjorden","Hordaland","NOR"
"Langavatnet",60.6077328375911,5.33490834413281,"NVE:vatnLnr:26379",26379,5.33490834413281,"Lindås","Hordaland","NOR"
"Gåsavatnet",59.3797949446573,5.5759931594435,"NVE:vatnLnr:22763",22763,5.5759931594435,"Tysvær","Rogaland","NOR"
"Fjellhaugvatn",59.8658542761441,6.05738921831185,"NVE:vatnLnr:1479",1479,6.05738921831185,"Kvinnherad","Hordaland","NOR"
"Fuglavatnet",59.4132307566747,5.46388462766424,"NVE:vatnLnr:22698",22698,5.46388462766424,"Tysvær","Rogaland","NOR"
"Kvernviktjerna",58.7438188442207,9.06437513835761,"NVE:vatnLnr:9265",9265,9.06437513835761,"Risør","Aust-Agder","NOR"
"Vansjø",59.4059500764881,10.8304472381184,"NVE:vatnLnr:291",291,10.8304472381184,"Våler","Ãstfold","NOR"
"Svarteputt",59.8236596274449,10.3832130675251,"NVE:vatnLnr:5514",5514,10.3832130675251,"Asker","Akershus","NOR"
"Molandsvann",58.5419336951855,8.82378325114431,"NVE:vatnLnr:1265",1265,8.82378325114431,"Arendal","Aust-Agder","NOR"
"Beibutjern",58.5031365875218,8.79868334450255,"NVE:vatnLnr:148360",148360,8.79868334450255,"Arendal","Aust-Agder","NOR"
"Blågestadvannet",58.4933076807053,8.71535679643258,"NVE:vatnLnr:10615",10615,8.71535679643258,"Arendal","Aust-Agder","NOR"
"Assævannet",58.4856450505145,8.6909922546386,"NVE:vatnLnr:10623",10623,8.6909922546386,"Arendal","Aust-Agder","NOR"
"Sagvannet",58.4540955145438,8.6887439635505,"NVE:vatnLnr:10734",10734,8.6887439635505,"Arendal","Aust-Agder","NOR"
"Sørsvannet",58.45896950408,8.7063304028448,"NVE:vatnLnr:10739",10739,8.7063304028448,"Arendal","Aust-Agder","NOR"
"Mørlandstjenna",58.8252000060496,9.262555503164,"NVE:vatnLnr:8754",8754,9.262555503164,"Kragerø","Telemark","NOR"
"Prestvannet",69.6594000817871,18.9349846552736,"NVE:vatnLnr:51396",51396,18.9349846552736,"Tromsø","Troms","NOR"
"Djupsjøen",63.2659525516834,10.1342703521069,"NVE:vatnLnr:37559",37559,10.1342703521069,"Skaun","Sør-Trøndelag","NOR"
"Ryvatnet",63.1690657884886,9.83607524654943,"NVE:vatnLnr:37698",37698,9.83607524654943,"Orkdal","Sør-Trøndelag","NOR"
"Kalandsvatnet",60.2746535351089,5.39860172597832,"NVE:vatnLnr:2057",2057,5.39860172597832,"Bergen","Hordaland","NOR"
"Hanangervatnet",58.0811355154721,6.73062644318443,"NVE:vatnLnr:21960",21960,6.73062644318443,"Farsund","Vest-Agder","NOR"
"Bolkesjø",59.717935749142,9.260478081512,"NVE:vatnLnr:6126",6126,9.260478081512,"Notodden","Telemark","NOR"
"Follsjå",59.6912886593256,9.23236467857923,"NVE:vatnLnr:32",32,9.23236467857923,"Notodden","Telemark","NOR"
"Norsjø",59.2926716049295,9.33213195969389,"NVE:vatnLnr:6",6,9.33213195969389,"Skien","Telemark","NOR"
"Børsesjø",59.2283334451019,9.61656670550763,"NVE:vatnLnr:6573",6573,9.61656670550763,"Skien","Telemark","NOR"
"Sluppan",58.8776138952303,9.3658878382257,"NVE:vatnLnr:128375",128375,9.3658878382257,"Kragerø","Telemark","NOR"
"Thorsdalstjenna",58.8947230285966,9.29774532824819,"NVE:vatnLnr:8329",8329,9.29774532824819,"Kragerø","Telemark","NOR"
"Setertjenn",58.8086590765803,9.26568979987865,"NVE:vatnLnr:128415",128415,9.26568979987865,"Kragerø","Telemark","NOR"
"Vatnebrynnvatnet",59.8790355288474,9.52010109270674,"NVE:vatnLnr:379",379,9.52010109270674,"Flesberg","Buskerud","NOR"
"Asketjern",60.0475572862148,9.87851415227881,"NVE:vatnLnr:198370",198370,9.87851415227881,"Modum","Buskerud","NOR"
"Grønmalen",60.4481272995136,10.2598860538564,"NVE:vatnLnr:632",632,10.2598860538564,"Gran","Oppland","NOR"
"Sortungen",60.4289719699728,10.341726970042,"NVE:vatnLnr:631",631,10.341726970042,"Gran","Oppland","NOR"
"Kjøpangertjørnin",61.815582382372,9.11841643631186,"NVE:vatnLnr:87371",87371,9.11841643631186,"Vågå","Oppland","NOR"
"Veslvatnet",61.8064884622,9.02752941093014,"NVE:vatnLnr:32298",32298,9.02752941093014,"Vågå","Oppland","NOR"
"Mjøsa",60.734429239263,10.9500213034027,"NVE:vatnLnr:118",118,10.9500213034027,"Ringsaker","Hedmark","NOR"
"Kinnlitjernet",60.8862898083494,10.806334632124,"NVE:vatnLnr:4448",4448,10.806334632124,"Ringsaker","Hedmark","NOR"
"Hurdalssjøen",60.3417531670523,11.07276927365,"NVE:vatnLnr:141",141,11.07276927365,"Hurdal","Akershus","NOR"
"Bråtevannet",59.7233905525221,11.4437254077614,"NVE:vatnLnr:3279",3279,11.4437254077614,"Aurskog-Høland","Akershus","NOR"
"Glennetjernet",59.6664942200979,10.8597426094734,"NVE:vatnLnr:80721",80721,10.8597426094734,"Ski","Akershus","NOR"
"Haugertjernet",59.5739897452917,10.6749727621157,"NVE:vatnLnr:5777",5777,10.6749727621157,"Vestby","Akershus","NOR"
"Arekilen",59.0410407165349,11.0129631651066,"NVE:vatnLnr:153489",153489,11.0129631651066,"Hvaler","Ãstfold","NOR"
"Bergsjøen",59.2288992841999,11.332183175029,"NVE:vatnLnr:3499",3499,11.332183175029,"Halden","Ãstfold","NOR"
"Ertevannet",59.3231318196368,11.3864970365626,"NVE:vatnLnr:134",134,11.3864970365626,"Rakkestad","Ãstfold","NOR"
"Stomperudtjernet",59.3232915991081,11.4046556362124,"NVE:vatnLnr:3446",3446,11.4046556362124,"Rakkestad","Ãstfold","NOR"
"Kallaksjøen",59.6641485435568,11.3914259635154,"NVE:vatnLnr:3317",3317,11.3914259635154,"Trøgstad","Ãstfold","NOR"
"Godvatnet",65.2728879153712,12.5797014487422,"NVE:vatnLnr:43016",43016,12.5797014487422,"Brønnøy","Nordland","NOR"
"Myrmarkvatnet",65.2915096539418,12.4243566553061,"NVE:vatnLnr:454",454,12.4243566553061,"Bindal","Nordland","NOR"
"Horsbergvatnet",65.0701405456468,12.0959060042049,"NVE:vatnLnr:43524",43524,12.0959060042049,"Bindal","Nordland","NOR"
"Mølnvatnet",65.2505559509594,12.6935286086831,"NVE:vatnLnr:43054",43054,12.6935286086831,"Bindal","Nordland","NOR"
"Diedtjienjaevrie",65.0222424890879,12.6920524556433,"NVE:vatnLnr:440",440,12.6920524556433,"Bindal","Nordland","NOR"
"Markavatnet",65.0088682546691,12.0078543968862,"NVE:vatnLnr:43695",43695,12.0078543968862,"Nærøy","Nord-Trøndelag","NOR"
"Kilsvatnet",65.0098877538391,11.8104312855307,"NVE:vatnLnr:43696",43696,11.8104312855307,"Nærøy","Nord-Trøndelag","NOR"
"Bogavatnet",64.991641918787,11.931063093462,"NVE:vatnLnr:38660",38660,11.931063093462,"Nærøy","Nord-Trøndelag","NOR"
"Haltussvatnet",64.9693351787461,11.8289140224134,"NVE:vatnLnr:38748",38748,11.8289140224134,"Nærøy","Nord-Trøndelag","NOR"
"Lavatnet",64.9536142357264,11.7712945604781,"NVE:vatnLnr:38784",38784,11.7712945604781,"Nærøy","Nord-Trøndelag","NOR"
"Honnavatnet",64.4105352143996,10.9062716719029,"NVE:vatnLnr:677",677,10.9062716719029,"Flatanger","Nord-Trøndelag","NOR"
"Gøllaustjønna",64.445329469756,11.0800158607945,"NVE:vatnLnr:40168",40168,11.0800158607945,"Mandalseid","Nord-Trøndelag","NOR"
"Kvernvikvatnet",64.7341530884292,11.5566551342301,"NVE:vatnLnr:731",731,11.5566551342301,"Fosnes","Nord-Trøndelag","NOR"
"Urdsvatnet",64.6606213737616,11.4556148848532,"NVE:vatnLnr:39468",39468,11.4556148848532,"Fosnes","Nord-Trøndelag","NOR"
"Skjerivatnet",64.6100196676581,11.4972447352533,"NVE:vatnLnr:67902",67902,11.4972447352533,"Namsos","Nord-Trøndelag","NOR"
"Setervatnet",64.5966326727076,11.1307819567747,"NVE:vatnLnr:39732",39732,11.1307819567747,"Namsos","Nord-Trøndelag","NOR"
"Spillumsvatnet",64.4261922344531,11.5677688152052,"NVE:vatnLnr:40207",40207,11.5677688152052,"Namsos","Nord-Trøndelag","NOR"
"Barstadvatnet",64.4102227907132,11.5657001986152,"NVE:vatnLnr:40252",40252,11.5657001986152,"Namsos","Nord-Trøndelag","NOR"
"Spjøtvatnet",64.3670645136197,11.6175652695195,"NVE:vatnLnr:40440",40440,11.6175652695195,"Namsos","Nord-Trøndelag","NOR"
"Gravdalshavet",64.4079102155245,11.7104708719452,"NVE:vatnLnr:40247",40247,11.7104708719452,"Overhalla","Nord-Trøndelag","NOR"
"Koltjønna",64.418091614199,12.024341850066,"NVE:vatnLnr:40208",40208,12.024341850066,"Overhalla","Nord-Trøndelag","NOR"
"Storsøyen",64.3703738948292,11.7914140977005,"NVE:vatnLnr:40421",40421,11.7914140977005,"Overhalla","Nord-Trøndelag","NOR"
"Murusjøen",64.4774163893208,14.035019564777,"NVE:vatnLnr:1127",1127,14.035019564777,"Lierne","Nord-Trøndelag","NOR"
"Ytter-Bangsjøen",64.2973012870373,11.9938038390331,"NVE:vatnLnr:27184",27184,11.9938038390331,"Snåsa","Nord-Trøndelag","NOR"
"Follavatnet",64.0385109514051,11.077186176076,"NVE:vatnLnr:943",943,11.077186176076,"Verran","Nord-Trøndelag","NOR"
"Snåsavatnet",64.1860795986136,12.010752299687,"NVE:vatnLnr:930",930,12.010752299687,"Steinkjer","Nord-Trøndelag","NOR"
"Liavatnet",64.1847941744273,11.8066138523638,"NVE:vatnLnr:41186",41186,11.8066138523638,"Steinkjer","Nord-Trøndelag","NOR"
"Skogvatnet",64.1741795176445,11.7489619359645,"NVE:vatnLnr:941",941,11.7489619359645,"Steinkjer","Nord-Trøndelag","NOR"
"Lømsen",64.0989365234906,11.5156629367691,"NVE:vatnLnr:937",937,11.5156629367691,"Steinkjer","Nord-Trøndelag","NOR"
"Liavatnet",64.0578870241239,11.3154110167679,"NVE:vatnLnr:41756",41756,11.3154110167679,"Steinkjer","Nord-Trøndelag","NOR"
"Vesterdyen",64.0909579305079,11.662185707733,"NVE:vatnLnr:41614",41614,11.662185707733,"Steinkjer","Nord-Trøndelag","NOR"
"Vesterdalvatnet",64.16583859263,11.6820466638446,"NVE:vatnLnr:41279",41279,11.6820466638446,"Steinkjer","Nord-Trøndelag","NOR"
"Gilten",64.2064325252699,11.5576366868355,"NVE:vatnLnr:684",684,11.5576366868355,"Steinkjer","Nord-Trøndelag","NOR"
"Fossemvatnet",64.0634569673918,11.6252253868202,"NVE:vatnLnr:932",932,11.6252253868202,"Steinkjer","Nord-Trøndelag","NOR"
"Reinsvatnet",64.0402717950665,11.5836759723146,"NVE:vatnLnr:931",931,11.5836759723146,"Steinkjer","Nord-Trøndelag","NOR"
"Rungstadvatnet",64.0574420501082,11.4951415538993,"NVE:vatnLnr:41745",41745,11.4951415538993,"Steinkjer","Nord-Trøndelag","NOR"
"Vassaunvatnet",64.0564305899508,11.4679831441145,"NVE:vatnLnr:41754",41754,11.4679831441145,"Steinkjer","Nord-Trøndelag","NOR"
"Meltingvatnet",63.7823631175718,10.7606039440754,"NVE:vatnLnr:948",948,10.7606039440754,"Leksvik","Nord-Trøndelag","NOR"
"Kattmagan",63.8223135545145,10.8663090007863,"NVE:vatnLnr:36915",36915,10.8663090007863,"Mosvik","Nord-Trøndelag","NOR"
"Litjmeltingen",63.8131823266309,10.8831933058664,"NVE:vatnLnr:36928",36928,10.8831933058664,"Mosvik","Nord-Trøndelag","NOR"
"Torsvatnet",63.7708403862227,10.8903793845163,"NVE:vatnLnr:36983",36983,10.8903793845163,"Mosvik","Nord-Trøndelag","NOR"
"Ålvatnet",63.7556813192479,10.861824134911,"NVE:vatnLnr:37012",37012,10.861824134911,"Mosvik","Nord-Trøndelag","NOR"
"Bjørstadvatnet",63.7818868368974,10.9204275780276,"NVE:vatnLnr:36972",36972,10.9204275780276,"Mosvik","Nord-Trøndelag","NOR"
"Røsvatnet",63.7848991530598,10.8482550746188,"NVE:vatnLnr:36969",36969,10.8482550746188,"Mosvik","Nord-Trøndelag","NOR"
"Stordalsvatnet",63.7935080995036,10.8962206512315,"NVE:vatnLnr:36950",36950,10.8962206512315,"Mosvik","Nord-Trøndelag","NOR"
"Leksdalsvatnet",63.8565068013524,11.6002804764456,"NVE:vatnLnr:942",942,11.6002804764456,"Verdal","Nord-Trøndelag","NOR"
"Kjesbuvatnet",63.8157472309276,11.7509218195113,"NVE:vatnLnr:925",925,11.7509218195113,"Verdal","Nord-Trøndelag","NOR"
"Nesvatnet",63.6481061086133,11.0889497940486,"NVE:vatnLnr:37128",37128,11.0889497940486,"Levanger","Nord-Trøndelag","NOR"
"Movatnet",63.6216428127707,11.2319106106549,"NVE:vatnLnr:914",914,11.2319106106549,"Levanger","Nord-Trøndelag","NOR"
"Byavatnet",63.6622119693687,11.0145773241962,"NVE:vatnLnr:919",919,11.0145773241962,"Levanger","Nord-Trøndelag","NOR"
"Hammervatnet",63.6168479177813,11.0131408565022,"NVE:vatnLnr:912",912,11.0131408565022,"Levanger","Nord-Trøndelag","NOR"
"Hoklingen",63.6231482950383,11.13960006467,"NVE:vatnLnr:913",913,11.13960006467,"Levanger","Nord-Trøndelag","NOR"
"Hovdalsvatnet",63.6213075897833,10.8669110099661,"NVE:vatnLnr:917",917,10.8669110099661,"Frosta","Nord-Trøndelag","NOR"
"Bergsvatnet",63.5984059439331,10.7473787387188,"NVE:vatnLnr:37163",37163,10.7473787387188,"Frosta","Nord-Trøndelag","NOR"
"Remmavatnet",63.6002102337456,10.7548371542905,"NVE:vatnLnr:37160",37160,10.7548371542905,"Frosta","Nord-Trøndelag","NOR"
"Julvatnet",63.7452148224925,10.5428595368425,"NVE:vatnLnr:37031",37031,10.5428595368425,"Leksvik","Nord-Trøndelag","NOR"
"Rypvatnet",63.7424339883256,10.5179529116638,"NVE:vatnLnr:37039",37039,10.5179529116638,"Leksvik","Nord-Trøndelag","NOR"
"Fjellvatna",63.7348472511742,10.4572992959831,"NVE:vatnLnr:67901",67901,10.4572992959831,"Leksvik","Nord-Trøndelag","NOR"
"Fjellvatna",63.7382724670597,10.4849653403272,"NVE:vatnLnr:65792",65792,10.4849653403272,"Leksvik","Nord-Trøndelag","NOR"
"Båvatnet",63.7347103344061,10.5013251783148,"NVE:vatnLnr:37052",37052,10.5013251783148,"Leksvik","Nord-Trøndelag","NOR"
"Fiskløysa",63.6043594306098,10.3015020840971,"NVE:vatnLnr:37161",37161,10.3015020840971,"Leksvik","Nord-Trøndelag","NOR"
"Langen",63.6836843634663,10.4261199092011,"NVE:vatnLnr:37098",37098,10.4261199092011,"Leksvik","Nord-Trøndelag","NOR"
"Bjørsjøen",63.6942678369134,10.4021529465927,"NVE:vatnLnr:37091",37091,10.4021529465927,"Leksvik","Nord-Trøndelag","NOR"
"Skjellbreivatnet",63.6816930753517,10.4939006151164,"NVE:vatnLnr:37100",37100,10.4939006151164,"Leksvik","Nord-Trøndelag","NOR"
"Romsjøen",63.4030082146681,11.0920174846907,"NVE:vatnLnr:37348",37348,11.0920174846907,"Stjørdal","Nord-Trøndelag","NOR"
"Stor-Rennen",63.3696298113768,10.9712993129647,"NVE:vatnLnr:37417",37417,10.9712993129647,"Stjørdal","Nord-Trøndelag","NOR"
"Lauvvatnet",63.3667405825936,11.0159330447361,"NVE:vatnLnr:37416",37416,11.0159330447361,"Stjørdal","Nord-Trøndelag","NOR"
"Hjelpdalsvatnet",63.4823597881135,11.0225576145444,"NVE:vatnLnr:37272",37272,11.0225576145444,"Stjørdal","Nord-Trøndelag","NOR"
"Ålvatnet",63.3644668685551,10.6723557579328,"NVE:vatnLnr:104887",104887,10.6723557579328,"Malvik","Sør-Trøndelag","NOR"
"Jonsvatnet",63.3644386008295,10.588726021265,"NVE:vatnLnr:910",910,10.588726021265,"Trondheim","Sør-Trøndelag","NOR"
"Stor-Leirsjøen",63.3842761596138,10.2799770804806,"NVE:vatnLnr:37410",37410,10.2799770804806,"Trondheim","Sør-Trøndelag","NOR"
"Lianvatnet",63.4006924562818,10.3179545984788,"NVE:vatnLnr:37382",37382,10.3179545984788,"Trondheim","Sør-Trøndelag","NOR"
"Damvatnet",63.4367346518604,10.2142513862748,"NVE:vatnLnr:37316",37316,10.2142513862748,"Trondheim","Sør-Trøndelag","NOR"
"Kongensåsvatnet",63.4370649707161,10.2257843012807,"NVE:vatnLnr:37315",37315,10.2257843012807,"Trondheim","Sør-Trøndelag","NOR"
"Skjellbreia",63.3965764686157,10.243546322283,"NVE:vatnLnr:37386",37386,10.243546322283,"Trondheim","Sør-Trøndelag","NOR"
"Laugen",63.2704270644492,10.0390720122083,"NVE:vatnLnr:888",888,10.0390720122083,"Skaun","Sør-Trøndelag","NOR"
"Malmsjøen",63.2282309731198,10.0886147933224,"NVE:vatnLnr:891",891,10.0886147933224,"Skaun","Sør-Trøndelag","NOR"
"Skjeggstadvatnet",63.1749841084901,10.1766926787344,"NVE:vatnLnr:37661",37661,10.1766926787344,"Melhus","Sør-Trøndelag","NOR"
"Grøtvatnet",63.1427616234136,10.1604637883185,"NVE:vatnLnr:878",878,10.1604637883185,"Melhus","Sør-Trøndelag","NOR"
"Gaustadvatnet",63.1544969117415,10.1097595470188,"NVE:vatnLnr:890",890,10.1097595470188,"Melhus","Sør-Trøndelag","NOR"
"Benna",63.1719062770098,10.2177779744701,"NVE:vatnLnr:877",877,10.2177779744701,"Melhus","Sør-Trøndelag","NOR"
"Ånøya",63.2110045377917,10.1498312273021,"NVE:vatnLnr:889",889,10.1498312273021,"Melhus","Sør-Trøndelag","NOR"
"Ringavatnet",63.1712315329065,9.54507134372437,"NVE:vatnLnr:956",956,9.54507134372437,"Meldal","Sør-Trøndelag","NOR"
"Gangåsvatnet",63.2715847862861,9.65000340892107,"NVE:vatnLnr:963",963,9.65000340892107,"Orkdal","Sør-Trøndelag","NOR"
"Søvatnet",63.2200699334187,9.37987501318996,"NVE:vatnLnr:976",976,9.37987501318996,"Orkdal","Sør-Trøndelag","NOR"
"Svorksjøan",63.2357791436226,9.51066690498304,"NVE:vatnLnr:964",964,9.51066690498304,"Orkdal","Sør-Trøndelag","NOR"
"Svorksjøan",63.232043937815,9.48610462630539,"NVE:vatnLnr:38074",38074,9.48610462630539,"Orkdal","Sør-Trøndelag","NOR"
"Ålvatnet",63.2995982256893,9.7901245633717,"NVE:vatnLnr:37528",37528,9.7901245633717,"Orkdal","Sør-Trøndelag","NOR"
"Hostovatnet",63.1895250103969,9.56515328467892,"NVE:vatnLnr:955",955,9.56515328467892,"Orkdal","Sør-Trøndelag","NOR"
"Frostadvatnet",63.4844839177254,9.74351717314143,"NVE:vatnLnr:37281",37281,9.74351717314143,"Agdenes","Sør-Trøndelag","NOR"
"Utnesvatnet",63.4947874911077,9.75640019444109,"NVE:vatnLnr:37268",37268,9.75640019444109,"Agdenes","Sør-Trøndelag","NOR"
"Vasslivatnet",63.2131796123178,9.27676480288508,"NVE:vatnLnr:980",980,9.27676480288508,"Hemne","Sør-Trøndelag","NOR"
"Bjørkåsvatnet",63.5998692516247,8.92438604162829,"NVE:vatnLnr:36078",36078,8.92438604162829,"Hitra","Sør-Trøndelag","NOR"
"Dragvatnet",63.6368584660172,9.09030873871607,"NVE:vatnLnr:36041",36041,9.09030873871607,"Hitra","Sør-Trøndelag","NOR"
"Setervatnet",63.5421560021927,8.73155251376919,"NVE:vatnLnr:36130",36130,8.73155251376919,"Hitra","Sør-Trøndelag","NOR"
"Blåskogvatnet",63.5739087284596,8.90041638631196,"NVE:vatnLnr:973",973,8.90041638631196,"Hitra","Sør-Trøndelag","NOR"
"Larsskogvatnet",63.5688773845632,8.92708835836844,"NVE:vatnLnr:36106",36106,8.92708835836844,"Hitra","Sør-Trøndelag","NOR"
"Hestvatnet",63.7157909630952,8.78261961523924,"NVE:vatnLnr:35996",35996,8.78261961523924,"Frøya","Sør-Trøndelag","NOR"
"Ytre Damvatnet",63.7017620051735,8.67943804656943,"NVE:vatnLnr:36011",36011,8.67943804656943,"Frøya","Sør-Trøndelag","NOR"
"Indre Damvatnet",63.698681461683,8.6794399777642,"NVE:vatnLnr:36015",36015,8.6794399777642,"Frøya","Sør-Trøndelag","NOR"
"Blåbærvatnet",63.709324413675,8.66381887212911,"NVE:vatnLnr:36001",36001,8.66381887212911,"Frøya","Sør-Trøndelag","NOR"
"Kvernhusvatnet",63.6882534287206,8.40059631234367,"NVE:vatnLnr:36021",36021,8.40059631234367,"Frøya","Sør-Trøndelag","NOR"
"Kystadvatnet",63.6886000535265,8.42911626370497,"NVE:vatnLnr:36019",36019,8.42911626370497,"Frøya","Sør-Trøndelag","NOR"
"Eidsvatnet",63.7380124743274,9.83880720686887,"NVE:vatnLnr:37048",37048,9.83880720686887,"Bjugn","Sør-Trøndelag","NOR"
"Ytter Langvatna",63.7246121495794,10.1595269462033,"NVE:vatnLnr:37069",37069,10.1595269462033,"Rissa","Sør-Trøndelag","NOR"
"Inner Langvatna",63.736409193973,10.2002664871898,"NVE:vatnLnr:37054",37054,10.2002664871898,"Rissa","Sør-Trøndelag","NOR"
"Holvatnet",63.81433659585,10.3587166000695,"NVE:vatnLnr:653",653,10.3587166000695,"Rissa","Sør-Trøndelag","NOR"
"Kringsvatnet",63.8029897606232,10.2367760683423,"NVE:vatnLnr:67922",67922,10.2367760683423,"Rissa","Sør-Trøndelag","NOR"
"Nordsetervatnet",63.8248557614475,10.2338382207831,"NVE:vatnLnr:36917",36917,10.2338382207831,"Rissa","Sør-Trøndelag","NOR"
"Rødsjøvatnet",63.7860232720563,10.2361831192318,"NVE:vatnLnr:652",652,10.2361831192318,"Rissa","Sør-Trøndelag","NOR"
"Ytter Osavatnet",63.7564785114991,10.1897024327599,"NVE:vatnLnr:649",649,10.1897024327599,"Rissa","Sør-Trøndelag","NOR"
"Inner Osavatnet",63.7594014076429,10.221272374844,"NVE:vatnLnr:650",650,10.221272374844,"Rissa","Sør-Trøndelag","NOR"
"Brulivatnet",63.9013079521293,10.0837077541754,"NVE:vatnLnr:666",666,10.0837077541754,"Åfjord","Sør-Trøndelag","NOR"
"Trappvatna, østre",64.0562438834169,10.3189586162457,"NVE:vatnLnr:41807",41807,10.3189586162457,"Åfjord","Sør-Trøndelag","NOR"
"Trappvatna, vestre",64.0534656414384,10.2822153918599,"NVE:vatnLnr:41821",41821,10.2822153918599,"Åfjord","Sør-Trøndelag","NOR"
"Nittavatnet",64.053969085187,10.3880489075854,"NVE:vatnLnr:41801",41801,10.3880489075854,"Åfjord","Sør-Trøndelag","NOR"
"Austdalsvatna",63.8787180007056,10.2225576157213,"NVE:vatnLnr:36820",36820,10.2225576157213,"Åfjord","Sør-Trøndelag","NOR"
"Mørrivatnet",63.911941755648,10.2255327805063,"NVE:vatnLnr:36763",36763,10.2255327805063,"Åfjord","Sør-Trøndelag","NOR"
"Stordalsvatnet",63.9740502235776,10.3287563876341,"NVE:vatnLnr:663",663,10.3287563876341,"Åfjord","Sør-Trøndelag","NOR"
"Laksvatnet",64.0182039324755,10.4285016029666,"NVE:vatnLnr:41899",41899,10.4285016029666,"Åfjord","Sør-Trøndelag","NOR"
"Søre Berdalsvatnet",64.0058129070306,10.2974492576832,"NVE:vatnLnr:664",664,10.2974492576832,"Åfjord","Sør-Trøndelag","NOR"
"Nordtjønna",64.0405028154885,10.3359380435641,"NVE:vatnLnr:41851",41851,10.3359380435641,"Åfjord","Sør-Trøndelag","NOR"
"Lavatnet",64.0361701393464,10.1484203358041,"NVE:vatnLnr:41864",41864,10.1484203358041,"Åfjord","Sør-Trøndelag","NOR"
"Salbuvikvatnet",64.0508802328847,10.103384002906,"NVE:vatnLnr:41835",41835,10.103384002906,"Åfjord","Sør-Trøndelag","NOR"
"Kiplesundvatnet",63.3296472691094,8.44833413871976,"NVE:vatnLnr:36408",36408,8.44833413871976,"Aure","Møre og Romsdal","NOR"
"Lesundvatnet",63.3393592909722,8.49989672793958,"NVE:vatnLnr:36397",36397,8.49989672793958,"Aure","Møre og Romsdal","NOR"
"Ledalsvatnet",63.4057343164854,8.73434521095945,"NVE:vatnLnr:66090",66090,8.73434521095945,"Aure","Møre og Romsdal","NOR"
"Vinsternesvatnet",63.2339102959767,8.33556473833341,"NVE:vatnLnr:2168",2168,8.33556473833341,"Aure","Møre og Romsdal","NOR"
"Gjerdavatnet",63.3149353676029,8.43125205430028,"NVE:vatnLnr:36421",36421,8.43125205430028,"Aure","Møre og Romsdal","NOR"
"Øvre Ulvsnesvatnet",63.3439192583154,8.63951537572565,"NVE:vatnLnr:36392",36392,8.63951537572565,"Aure","Møre og Romsdal","NOR"
"Nedre Ulvsnesvatnet",63.3492309628831,8.66046589888325,"NVE:vatnLnr:36382",36382,8.66046589888325,"Aure","Møre og Romsdal","NOR"
"Igltjønna",63.0580609887507,9.22132828050331,"NVE:vatnLnr:37968",37968,9.22132828050331,"Rindal","Møre og Romsdal","NOR"
"Isvatnet",63.0574484932207,9.30057697804077,"NVE:vatnLnr:37969",37969,9.30057697804077,"Rindal","Møre og Romsdal","NOR"
"Langvatnet",63.1351278206206,9.43129785524652,"NVE:vatnLnr:37786",37786,9.43129785524652,"Rindal","Møre og Romsdal","NOR"
"Rørvatnet",63.1216498040048,9.40778215687707,"NVE:vatnLnr:37818",37818,9.40778215687707,"Rindal","Møre og Romsdal","NOR"
"Lomundsjøen",63.1523172830556,9.41728501999988,"NVE:vatnLnr:37738",37738,9.41728501999988,"Rindal","Møre og Romsdal","NOR"
"Bergemsvatnet",62.9477674718361,8.19554911848046,"NVE:vatnLnr:2148",2148,8.19554911848046,"Tingvoll","Møre og Romsdal","NOR"
"Gylvatnet",62.9754758641551,8.13779225224997,"NVE:vatnLnr:31116",31116,8.13779225224997,"Tingvoll","Møre og Romsdal","NOR"
"Flemsetervatnet",62.9207579852339,8.00740682445078,"NVE:vatnLnr:31134",31134,8.00740682445078,"Gjemnes","Møre og Romsdal","NOR"
"Hostadvatnet",62.9343673313498,7.20264378180239,"NVE:vatnLnr:2008",2008,7.20264378180239,"Fræna","Møre og Romsdal","NOR"
"Øverlandsvatnet",62.7590643797733,7.20546608968781,"NVE:vatnLnr:31234",31234,7.20546608968781,"Molde","Møre og Romsdal","NOR"
"Bergsvatnet",62.764423287025,7.21291248894546,"NVE:vatnLnr:31231",31231,7.21291248894546,"Molde","Møre og Romsdal","NOR"
"Bårdsdalsvatnet",62.7739149330257,7.22308474179666,"NVE:vatnLnr:31221",31221,7.22308474179666,"Molde","Møre og Romsdal","NOR"
"Måsvatnet",62.8061787614049,7.96745811771801,"NVE:vatnLnr:31209",31209,7.96745811771801,"Nesset","Møre og Romsdal","NOR"
"Søråsvatnet",62.628933279337,7.01280233016738,"NVE:vatnLnr:31284",31284,7.01280233016738,"Vestnes","Møre og Romsdal","NOR"
"Vassetvatnet",62.4348631148552,6.21057070476924,"NVE:vatnLnr:30905",30905,6.21057070476924,"Sula","Møre og Romsdal","NOR"
"Brusdalsvatnet",62.4758044770752,6.46872625654147,"NVE:vatnLnr:1982",1982,6.46872625654147,"Skodje","Møre og Romsdal","NOR"
"Andestadvatnet",62.4124503668547,6.66440925809082,"NVE:vatnLnr:31509",31509,6.66440925809082,"Sykkylven","Møre og Romsdal","NOR"
"Fitjavatnet",62.3194522315398,6.6013197630673,"NVE:vatnLnr:1955",1955,6.6013197630673,"Sykkylven","Møre og Romsdal","NOR"
"Mevatnet",62.5266036847479,6.81792424555831,"NVE:vatnLnr:31368",31368,6.81792424555831,"Ørskog","Møre og Romsdal","NOR"
"Svartløkvatnet",62.5420880070359,6.85267272217216,"NVE:vatnLnr:1981",1981,6.85267272217216,"Skodje","Møre og Romsdal","NOR"
"Akslevollvatnet",62.5145073244409,6.82224698217259,"NVE:vatnLnr:30350",30350,6.82224698217259,"Ørskog","Møre og Romsdal","NOR"
"Hallvardsvatnet",62.4468270131721,6.92628736307279,"NVE:vatnLnr:31470",31470,6.92628736307279,"Ørskog","Møre og Romsdal","NOR"
"Nysætervatnet",62.5260488118455,6.91958953070949,"NVE:vatnLnr:31372",31372,6.91958953070949,"Ørskog","Møre og Romsdal","NOR"
"Skogevatnet",62.2181448894534,5.70542043268069,"NVE:vatnLnr:30957",30957,5.70542043268069,"Sande","Møre og Romsdal","NOR"
"Klipevatnet",62.2240814865128,5.73332698079928,"NVE:vatnLnr:138334",138334,5.73332698079928,"Sande","Møre og Romsdal","NOR"
"Stemmedalsvatnet",62.2691025159698,5.76519759412602,"NVE:vatnLnr:30935",30935,5.76519759412602,"Herøy","Møre og Romsdal","NOR"
"Aursnesvatnet",62.2541372778241,5.83387558043013,"NVE:vatnLnr:260115",260115,5.83387558043013,"Ulstein","Møre og Romsdal","NOR"
"Sandvikvatnet",62.1495074251989,5.50437381687185,"NVE:vatnLnr:1931",1931,5.50437381687185,"Sande","Møre og Romsdal","NOR"
"Kilebrekkvatnet",62.0343078161598,5.67099925571981,"NVE:vatnLnr:31058",31058,5.67099925571981,"Vanylven","Møre og Romsdal","NOR"
"Lovatnet",61.8233442908193,6.95429294295734,"NVE:vatnLnr:1806",1806,6.95429294295734,"Stryn","Sogn og Fjordane","NOR"
"Oppstrynsvatnet",61.9281958578133,7.01650591089694,"NVE:vatnLnr:1802",1802,7.01650591089694,"Stryn","Sogn og Fjordane","NOR"
"Oldevatnet",61.7773807931082,6.82580288143402,"NVE:vatnLnr:1805",1805,6.82580288143402,"Stryn","Sogn og Fjordane","NOR"
"Ommedalsvatnet",61.7087834297829,5.91691472882688,"NVE:vatnLnr:1771",1771,5.91691472882688,"Gloppen","Sogn og Fjordane","NOR"
"Storfjorden",61.6397897248552,5.75964944883444,"NVE:vatnLnr:1756",1756,5.75964944883444,"Gloppen","Sogn og Fjordane","NOR"
"Sætrevatnet",61.9530869913542,6.23362890219835,"NVE:vatnLnr:29104",29104,6.23362890219835,"Eid","Sogn og Fjordane","NOR"
"Grøndalsvatnet",61.9789890048898,6.28938962629046,"NVE:vatnLnr:1940",1940,6.28938962629046,"Eid","Sogn og Fjordane","NOR"
"Hornindalsvatnet",61.936616898625,6.33799896924115,"NVE:vatnLnr:1807",1807,6.33799896924115,"Eid","Sogn og Fjordane","NOR"
"Blålidvatna",61.858553705484,5.3732634106096,"NVE:vatnLnr:27999",27999,5.3732634106096,"Bremanger","Sogn og Fjordane","NOR"
"Konsdalsvatnet",61.8695594121086,5.07470975355465,"NVE:vatnLnr:27984",27984,5.07470975355465,"Bremanger","Sogn og Fjordane","NOR"
"Dalevatnet",61.8533391866848,5.01069027869086,"NVE:vatnLnr:1812",1812,5.01069027869086,"Bremanger","Sogn og Fjordane","NOR"
"Krokstadvatnet",61.6129314425615,5.64336171891066,"NVE:vatnLnr:1758",1758,5.64336171891066,"Flora","Sogn og Fjordane","NOR"
"Lykkjebøvatnet",61.6234824541838,5.60175080844949,"NVE:vatnLnr:1755",1755,5.60175080844949,"Flora","Sogn og Fjordane","NOR"
"Endestadvatnet",61.6008000958968,5.57087776483823,"NVE:vatnLnr:1754",1754,5.57087776483823,"Flora","Sogn og Fjordane","NOR"
"Svardalsvatnet",61.5357488694956,5.44088704982559,"NVE:vatnLnr:28328",28328,5.44088704982559,"Flora","Sogn og Fjordane","NOR"
"Fiskevatnet",61.6442456853625,5.47746099717527,"NVE:vatnLnr:28262",28262,5.47746099717527,"Flora","Sogn og Fjordane","NOR"
"Midbøvatnet",61.6576595791511,5.51651073452,"NVE:vatnLnr:28250",28250,5.51651073452,"Flora","Sogn og Fjordane","NOR"
"Solheimsvatnet",61.6515077962653,5.47311272474752,"NVE:vatnLnr:1761",1761,5.47311272474752,"Flora","Sogn og Fjordane","NOR"
"Sunndalsvatnet",61.6678196248739,5.56813924195548,"NVE:vatnLnr:1762",1762,5.56813924195548,"Flora","Sogn og Fjordane","NOR"
"Grøndalsvatnet",61.6893517845794,5.56924165111425,"NVE:vatnLnr:28193",28193,5.56924165111425,"Flora","Sogn og Fjordane","NOR"
"Vassetevatnet",61.5482219965794,5.49002126191222,"NVE:vatnLnr:1753",1753,5.49002126191222,"Flora","Sogn og Fjordane","NOR"
"Movatnet",61.4319687966571,5.96069869668203,"NVE:vatnLnr:1733",1733,5.96069869668203,"Førde","Sogn og Fjordane","NOR"
"Marosfjorden",61.2454524369806,5.45111100862674,"NVE:vatnLnr:1641",1641,5.45111100862674,"Fjaler","Sogn og Fjordane","NOR"
"Langesjøen",61.2670849175677,5.17166969324079,"NVE:vatnLnr:1643",1643,5.17166969324079,"Hyllestad","Sogn og Fjordane","NOR"
"Kringlevatnet",61.2819389848052,5.15558239493047,"NVE:vatnLnr:28581",28581,5.15558239493047,"Fjaler","Sogn og Fjordane","NOR"
"Saurdalsvatnet",61.2995525431804,5.2180234632743,"NVE:vatnLnr:28554",28554,5.2180234632743,"Fjaler","Sogn og Fjordane","NOR"
"Tyssedalsvatnet",61.3048651406909,5.26605921139588,"NVE:vatnLnr:1644",1644,5.26605921139588,"Fjaler","Sogn og Fjordane","NOR"
"Sætrevatnet",61.3286840805367,4.95336657824571,"NVE:vatnLnr:28517",28517,4.95336657824571,"Askvoll","Sogn og Fjordane","NOR"
"Stongsvatnet",61.4283176178589,5.21259423672191,"NVE:vatnLnr:1739",1739,5.21259423672191,"Askvoll","Sogn og Fjordane","NOR"
"Hærlandsvatnet",61.3594089518027,4.93405905055472,"NVE:vatnLnr:1743",1743,4.93405905055472,"Askvoll","Sogn og Fjordane","NOR"
"Flossvatnet",61.1908295358092,5.34595800448996,"NVE:vatnLnr:28770",28770,5.34595800448996,"Hyllestad","Sogn og Fjordane","NOR"
"Hydalsvatnet",61.2459802555311,5.25406700688698,"NVE:vatnLnr:28672",28672,5.25406700688698,"Hyllestad","Sogn og Fjordane","NOR"
"Krakelivatnet",61.1065765484728,5.39513408985567,"NVE:vatnLnr:2490",2490,5.39513408985567,"Hyllestad","Sogn og Fjordane","NOR"
"Handalsvatnet",61.1381394546447,5.36940858323629,"NVE:vatnLnr:28858",28858,5.36940858323629,"Hyllestad","Sogn og Fjordane","NOR"
"Ramsgrøvatnet",61.2502439863021,5.22417651655252,"NVE:vatnLnr:28650",28650,5.22417651655252,"Hyllestad","Sogn og Fjordane","NOR"
"Brossvikvatnet",61.0527247857011,5.119793837796,"NVE:vatnLnr:1447",1447,5.119793837796,"Gulen","Sogn og Fjordane","NOR"
"Yndesdalsvatnet",60.9355970937617,5.36561140170582,"NVE:vatnLnr:2131",2131,5.36561140170582,"Gulen","Sogn og Fjordane","NOR"
"Lundarvatnet",60.6473082564849,6.44185968726658,"NVE:vatnLnr:27297",27297,6.44185968726658,"Voss","Hordaland","NOR"
"Vangsvatnet",60.6174108830919,6.36110814828571,"NVE:vatnLnr:2085",2085,6.36110814828571,"Voss","Hordaland","NOR"
"Evangervatnet",60.6485146506693,6.05968098646173,"NVE:vatnLnr:2084",2084,6.05968098646173,"Voss","Hordaland","NOR"
"Sandvinvatnet",60.0346665513598,6.55156761320697,"NVE:vatnLnr:1701",1701,6.55156761320697,"Odda","Hordaland","NOR"
"Litlandsvatnet",60.5533030799946,5.47578969008854,"NVE:vatnLnr:26472",26472,5.47578969008854,"Osterøy","Hordaland","NOR"
"Båtevikvatnet",60.4747808503805,5.16007416488615,"NVE:vatnLnr:26558",26558,5.16007416488615,"Askøy","Hordaland","NOR"
"Askevatnet",60.48751850164,5.17618590682618,"NVE:vatnLnr:2060",2060,5.17618590682618,"Askøy","Hordaland","NOR"
"Storavatnet",60.4528198309492,5.14376599608083,"NVE:vatnLnr:26591",26591,5.14376599608083,"Askøy","Hordaland","NOR"
"Tranetjørna",60.4697880409058,5.19725661533775,"NVE:vatnLnr:26579",26579,5.19725661533775,"Askøy","Hordaland","NOR"
"Fjellvatnet",60.4622763494412,5.18636456097054,"NVE:vatnLnr:26587",26587,5.18636456097054,"Askøy","Hordaland","NOR"
"Ingjerdsvatnet",60.4530242358712,5.18923425817324,"NVE:vatnLnr:26600",26600,5.18923425817324,"Askøy","Hordaland","NOR"
"Gravdalsvatnet",60.3827732935773,5.26286745074231,"NVE:vatnLnr:26692",26692,5.26286745074231,"Bergen","Hordaland","NOR"
"Liavatnet",60.3718920688098,5.25495465388489,"NVE:vatnLnr:26706",26706,5.25495465388489,"Bergen","Hordaland","NOR"
"Tennebekktjørna",60.3647760308024,5.26179360524887,"NVE:vatnLnr:26728",26728,5.26179360524887,"Bergen","Hordaland","NOR"
"Nesttunvatnet",60.3242876962713,5.35212868487296,"NVE:vatnLnr:66172",66172,5.35212868487296,"Bergen","Hordaland","NOR"
"Grimevatnet",60.3433230193052,5.41424804906508,"NVE:vatnLnr:2058",2058,5.41424804906508,"Bergen","Hordaland","NOR"
"Haukelandsvatnet",60.3656308796553,5.46424167838985,"NVE:vatnLnr:2075",2075,5.46424167838985,"Bergen","Hordaland","NOR"
"Ulvenvatnet",60.1927226165544,5.44003750602526,"NVE:vatnLnr:26962",26962,5.44003750602526,"Os","Hordaland","NOR"
"Hauglandsvatnet",60.2802126712366,5.4656234928342,"NVE:vatnLnr:26854",26854,5.4656234928342,"Bergen","Hordaland","NOR"
"Erslandsvatnet",59.7667547826798,5.24638598157328,"NVE:vatnLnr:22267",22267,5.24638598157328,"Bømlo","Hordaland","NOR"
"Grutlevatnet",59.6831073555675,5.18980303560124,"NVE:vatnLnr:22303",22303,5.18980303560124,"Bømlo","Hordaland","NOR"
"Bruarvatnet",59.6385091395249,5.57731361489744,"NVE:vatnLnr:22359",22359,5.57731361489744,"Oelen","Hordaland","NOR"
"Rødvatnet",59.5791582011651,5.42222285382009,"NVE:vatnLnr:22443",22443,5.42222285382009,"Sveio","Hordaland","NOR"
"Nesavatnet",59.5554139313978,5.43512177587367,"NVE:vatnLnr:22482",22482,5.43512177587367,"Sveio","Hordaland","NOR"
"Vigdarvatnet",59.5184488175717,5.382191203916,"NVE:vatnLnr:1476",1476,5.382191203916,"Sveio","Hordaland","NOR"
"Forevatnet",59.5280045093711,5.32119366450103,"NVE:vatnLnr:22539",22539,5.32119366450103,"Sveio","Hordaland","NOR"
"Opstveitvatnet",59.8510939706851,6.00218488328054,"NVE:vatnLnr:1487",1487,6.00218488328054,"Kvinnherad","Hordaland","NOR"
"Vatsvatnet",59.5149522170542,5.71262326798759,"NVE:vatnLnr:2036",2036,5.71262326798759,"Vindafjord","Rogaland","NOR"
"Lausnesvatnet",59.1817702258363,5.85665467517151,"NVE:vatnLnr:23032",23032,5.85665467517151,"Finnøy","Rogaland","NOR"
"Sævheimsvatnet",59.154004500428,5.79438740279252,"NVE:vatnLnr:23045",23045,5.79438740279252,"Finnøy","Rogaland","NOR"
"Sundmorkvatnet",59.0574662023401,6.34091635271519,"NVE:vatnLnr:25561",25561,6.34091635271519,"Forsand","Rogaland","NOR"
"Haukalivatnet",58.9155521864829,6.1593497389251,"NVE:vatnLnr:1668",1668,6.1593497389251,"Forsand","Rogaland","NOR"
"Fløysviktjørna",58.9151046638001,5.94500391964375,"NVE:vatnLnr:109967",109967,5.94500391964375,"Sandnes","Rogaland","NOR"
"Seldalsvatnet",58.8317702513449,5.98175160299729,"NVE:vatnLnr:1558",1558,5.98175160299729,"Sandnes","Rogaland","NOR"
"Eikelivatnet",58.9067739670181,5.94878380327079,"NVE:vatnLnr:19540",19540,5.94878380327079,"Sandnes","Rogaland","NOR"
"Suldalsvatnet",59.5789843215012,6.71264235787895,"NVE:vatnLnr:1864",1864,6.71264235787895,"Suldal","Rogaland","NOR"
"Mosvatnet",58.956613804972,5.71214377263126,"NVE:vatnLnr:19340",19340,5.71214377263126,"Stavanger","Rogaland","NOR"
"Stora Stokkavatnet",58.9671492133369,5.67033446199573,"NVE:vatnLnr:1553",1553,5.67033446199573,"Stavanger","Rogaland","NOR"
"Breilandsvatnet",59.2454588476377,6.29401245056097,"NVE:vatnLnr:24908",24908,6.29401245056097,"Hjelmeland","Rogaland","NOR"
"Funningslandsvatnet",59.2919149276525,6.42325323633836,"NVE:vatnLnr:24650",24650,6.42325323633836,"Hjelmeland","Rogaland","NOR"
"Hegnavatnet",59.2853923710344,6.53113621804541,"NVE:vatnLnr:24716",24716,6.53113621804541,"Hjelmeland","Rogaland","NOR"
"Hålandsvatnet",58.9750146446015,5.63254748251666,"NVE:vatnLnr:1554",1554,5.63254748251666,"Stavanger","Rogaland","NOR"
"Harvalandsvatnet",58.832117346081,5.57960457974079,"NVE:vatnLnr:19747",19747,5.57960457974079,"Sola","Rogaland","NOR"
"Grunningen",58.8524479862,5.79250960267538,"NVE:vatnLnr:19705",19705,5.79250960267538,"Sandnes","Rogaland","NOR"
"Dybingen",58.8657021520518,5.80677163303543,"NVE:vatnLnr:19657",19657,5.80677163303543,"Sandnes","Rogaland","NOR"
"Bråsteinvatnet",58.8051521334421,5.7880369815357,"NVE:vatnLnr:19843",19843,5.7880369815357,"Sandnes","Rogaland","NOR"
"Svihusvatnet",58.8270550211762,5.95488708779437,"NVE:vatnLnr:1557",1557,5.95488708779437,"Sandnes","Rogaland","NOR"
"Stokkalandsvatnet",58.8216798236725,5.73130134143225,"NVE:vatnLnr:19777",19777,5.73130134143225,"Sandnes","Rogaland","NOR"
"Nåselvatnet",58.7064009647883,5.88180598957254,"NVE:vatnLnr:20284",20284,5.88180598957254,"Gjesdal","Rogaland","NOR"
"Hellesvatnet",58.73067040796,5.96776004978541,"NVE:vatnLnr:20203",20203,5.96776004978541,"Gjesdal","Rogaland","NOR"
"Dypingen",58.7386601560535,6.04268574429437,"NVE:vatnLnr:67649",67649,6.04268574429437,"Gjesdal","Rogaland","NOR"
"Røyrvatnet",58.7103540468911,5.8631620240436,"NVE:vatnLnr:20263",20263,5.8631620240436,"Time","Rogaland","NOR"
"Grøningen",64.1204845772085,12.8329169848411,"NVE:vatnLnr:1144",1144,12.8329169848411,"Snåsa","Nord-Trøndelag","NOR"
"Bjåvatnet",58.5441914700091,5.75815357707218,"NVE:vatnLnr:20920",20920,5.75815357707218,"Hå","Rogaland","NOR"
"Søra Krogavatnet",58.4911152611615,5.85064394881537,"NVE:vatnLnr:21132",21132,5.85064394881537,"Hå","Rogaland","NOR"
"Nordra Krogavatnet",58.4953914511686,5.82278034735194,"NVE:vatnLnr:21095",21095,5.82278034735194,"Hå","Rogaland","NOR"
"Tjetlandsvatnet",58.7515647667014,5.98264119841125,"NVE:vatnLnr:20093",20093,5.98264119841125,"Gjesdal","Rogaland","NOR"
"Kvitlavatnet",58.7998419054804,6.10282523402168,"NVE:vatnLnr:19904",19904,6.10282523402168,"Gjesdal","Rogaland","NOR"
"Madlandsvatnet",58.7788662997711,6.07548991613208,"NVE:vatnLnr:1660",1660,6.07548991613208,"Gjesdal","Rogaland","NOR"
"Edlandsvatnet",58.7606194382534,5.87302204427725,"NVE:vatnLnr:1546",1546,5.87302204427725,"Gjesdal","Rogaland","NOR"
"Nordravatnet",58.7401972670835,5.89324258425713,"NVE:vatnLnr:20141",20141,5.89324258425713,"Gjesdal","Rogaland","NOR"
"Øystravatnet",58.7343571013025,5.90327135321928,"NVE:vatnLnr:20172",20172,5.90327135321928,"Gjesdal","Rogaland","NOR"
"Langavatnet",58.7378234268847,5.92335397482006,"NVE:vatnLnr:20131",20131,5.92335397482006,"Gjesdal","Rogaland","NOR"
"Homslandsvatnet",58.7236778558707,5.88457811477992,"NVE:vatnLnr:20207",20207,5.88457811477992,"Time","Rogaland","NOR"
"Frøylandsvatnet",58.7606389959394,5.68870479816487,"NVE:vatnLnr:1552",1552,5.68870479816487,"Klepp","Rogaland","NOR"
"Smukkevatnet",58.7111842005653,5.65789588757101,"NVE:vatnLnr:20248",20248,5.65789588757101,"Time","Rogaland","NOR"
"Kartavatnet",58.6290997055892,5.87064849001555,"NVE:vatnLnr:20631",20631,5.87064849001555,"Time","Rogaland","NOR"
"Tjålandsvatnet",58.6746847454214,5.83524275929615,"NVE:vatnLnr:20439",20439,5.83524275929615,"Time","Rogaland","NOR"
"Hålandsvatnet",58.746440368977,5.82147541541978,"NVE:vatnLnr:20094",20094,5.82147541541978,"Time","Rogaland","NOR"
"Mosvatnet",58.7575869279555,5.77211081563026,"NVE:vatnLnr:20038",20038,5.77211081563026,"Time","Rogaland","NOR"
"Taksdalsvatnet",58.7037221362393,5.80051058109415,"NVE:vatnLnr:20278",20278,5.80051058109415,"Time","Rogaland","NOR"
"Grudavatnet",58.7993402054316,5.62147033729982,"NVE:vatnLnr:19867",19867,5.62147033729982,"Klepp","Rogaland","NOR"
"Orrevatnet",58.7599202765958,5.54617295683875,"NVE:vatnLnr:1551",1551,5.54617295683875,"Klepp","Rogaland","NOR"
"Ergavatnet",58.7367391667479,5.56785242869309,"NVE:vatnLnr:20096",20096,5.56785242869309,"Klepp","Rogaland","NOR"
"Søylandsvatnet",58.6847497068291,5.60010401021405,"NVE:vatnLnr:20366",20366,5.60010401021405,"Hå","Rogaland","NOR"
"Hagavatnet",58.5972289848884,5.89416806903557,"NVE:vatnLnr:1543",1543,5.89416806903557,"Hå","Rogaland","NOR"
"Strandvatnet",58.5992778607975,5.8623771072523,"NVE:vatnLnr:20744",20744,5.8623771072523,"Hå","Rogaland","NOR"
"Trettesvatna",58.5848701398816,5.8137496880418,"NVE:vatnLnr:20788",20788,5.8137496880418,"Hå","Rogaland","NOR"
"Trettesvatna",58.582543577703,5.81946861265864,"NVE:vatnLnr:20804",20804,5.81946861265864,"Hå","Rogaland","NOR"
"Svåvatnet",58.3974970703605,6.08811124866892,"NVE:vatnLnr:21466",21466,6.08811124866892,"Eigersund","Rogaland","NOR"
"Sporavatnet",58.4976300637047,5.91752809528462,"NVE:vatnLnr:21109",21109,5.91752809528462,"Eigersund","Rogaland","NOR"
"Hellvigsvatnet",58.4898057776811,5.89503717117124,"NVE:vatnLnr:21128",21128,5.89503717117124,"Eigersund","Rogaland","NOR"
"Blåvatnet",58.5113972624213,5.89618054454195,"NVE:vatnLnr:21061",21061,5.89618054454195,"Eigersund","Rogaland","NOR"
"Fotlandsvatnet",58.4984671127318,6.01357974743774,"NVE:vatnLnr:21063",21063,6.01357974743774,"Eigersund","Rogaland","NOR"
"Eikesvatnet",58.5247198211633,5.99754460758606,"NVE:vatnLnr:20998",20998,5.99754460758606,"Eigersund","Rogaland","NOR"
"Øygreisvatnet",58.4898598426009,6.0639703778095,"NVE:vatnLnr:1536",1536,6.0639703778095,"Eigersund","Rogaland","NOR"
"Lysevatnet",58.4909448253971,5.96542804157488,"NVE:vatnLnr:21144",21144,5.96542804157488,"Eigersund","Rogaland","NOR"
"Slettebøvatnet",58.4630424116245,6.02380942085389,"NVE:vatnLnr:21224",21224,6.02380942085389,"Eigersund","Rogaland","NOR"
"Spjodevatnet",58.3986709244158,6.18006419505965,"NVE:vatnLnr:1538",1538,6.18006419505965,"Sokndal","Rogaland","NOR"
"Branndalsvatnet",58.3975586648921,6.11740935985972,"NVE:vatnLnr:21477",21477,6.11740935985972,"Eigersund","Rogaland","NOR"
"Kydlandsvatnet",58.4223468691137,6.13639065799312,"NVE:vatnLnr:1539",1539,6.13639065799312,"Eigersund","Rogaland","NOR"
"Oslandsvatnet",58.6488367426921,5.89610401763885,"NVE:vatnLnr:20546",20546,5.89610401763885,"Time","Rogaland","NOR"
"Ytra Kydlandsvatnet",58.675056310669,5.98604283081615,"NVE:vatnLnr:20435",20435,5.98604283081615,"Bjerkreim","Rogaland","NOR"
"Holmavatnet",58.6739780388204,6.01477572833955,"NVE:vatnLnr:20458",20458,6.01477572833955,"Bjerkreim","Rogaland","NOR"
"Ytra Vinjavatnet",58.7345962094053,6.21023160334124,"NVE:vatnLnr:20176",20176,6.21023160334124,"Bjerkreim","Rogaland","NOR"
"Maudalsvatnet",58.7424925616161,6.27581916165425,"NVE:vatnLnr:1528",1528,6.27581916165425,"Bjerkreim","Rogaland","NOR"
"Austrumdalsvatnet",58.6925904544564,6.27671363136264,"NVE:vatnLnr:1527",1527,6.27671363136264,"Bjerkreim","Rogaland","NOR"
"Ørsdalsvatnet",58.6317752892467,6.24014252809567,"NVE:vatnLnr:1524",1524,6.24014252809567,"Bjerkreim","Rogaland","NOR"
"Barbuvatnet",58.727612351251,6.3993134475125,"NVE:vatnLnr:20239",20239,6.3993134475125,"Bjerkreim","Rogaland","NOR"
"Svartevatnet",58.7416933195524,6.3884985239358,"NVE:vatnLnr:20190",20190,6.3884985239358,"Bjerkreim","Rogaland","NOR"
"Hofreistæ",58.6807974893039,6.17263070217155,"NVE:vatnLnr:1526",1526,6.17263070217155,"Bjerkreim","Rogaland","NOR"
"Storavatnet",58.7087120837896,6.16161925166644,"NVE:vatnLnr:1523",1523,6.16161925166644,"Bjerkreim","Rogaland","NOR"
"Ognavatnet",58.5602811510151,5.95959590158632,"NVE:vatnLnr:20899",20899,5.95959590158632,"Bjerkreim","Rogaland","NOR"
"Søra Furevatnet",58.5575767852095,5.98602240210002,"NVE:vatnLnr:1533",1533,5.98602240210002,"Bjerkreim","Rogaland","NOR"
"Snøsvatnet",58.6683947610815,6.04412872648429,"NVE:vatnLnr:20481",20481,6.04412872648429,"Bjerkreim","Rogaland","NOR"
"Berse",58.5704636211447,6.08215979185711,"NVE:vatnLnr:20855",20855,6.08215979185711,"Bjerkreim","Rogaland","NOR"
"Saglandsvatnet",58.5468067527294,6.0702649767237,"NVE:vatnLnr:20926",20926,6.0702649767237,"Bjerkreim","Rogaland","NOR"
"Røyslandsvatnet",58.6523815068663,5.95994864730287,"NVE:vatnLnr:20545",20545,5.95994864730287,"Bjerkreim","Rogaland","NOR"
"Svelavatnet",58.6317926541732,6.09928464781885,"NVE:vatnLnr:1525",1525,6.09928464781885,"Bjerkreim","Rogaland","NOR"
"Selura",58.3092797454509,6.70844225437048,"NVE:vatnLnr:1390",1390,6.70844225437048,"Flekkefjord","Vest-Agder","NOR"
"Lundevatnet",58.3870150818797,6.58522917254471,"NVE:vatnLnr:1399",1399,6.58522917254471,"Lund","Rogaland","NOR"
"Nespervatn",58.6891330455423,6.64462845314456,"NVE:vatnLnr:1403",1403,6.64462845314456,"Sirdal","Vest-Agder","NOR"
"Lindvatnet",58.6346992456362,6.65451169013868,"NVE:vatnLnr:1422",1422,6.65451169013868,"Sirdal","Vest-Agder","NOR"
"Bjørnestadvatnet",58.6579391505964,6.5951769557246,"NVE:vatnLnr:1423",1423,6.5951769557246,"Sirdal","Vest-Agder","NOR"
"Sirdalsvatnet",58.5544587653541,6.69578764683754,"NVE:vatnLnr:1400",1400,6.69578764683754,"Flekkefjord","Vest-Agder","NOR"
"Langevann",58.2636307513045,6.77860905816279,"NVE:vatnLnr:142508",142508,6.77860905816279,"Kvinesdal","Vest-Agder","NOR"
"Hestesprangvannet",58.2772695952659,6.85385430145811,"NVE:vatnLnr:21822",21822,6.85385430145811,"Kvinesdal","Vest-Agder","NOR"
"Mundlauga",58.278242116398,6.83885902915436,"NVE:vatnLnr:21821",21821,6.83885902915436,"Kvinesdal","Vest-Agder","NOR"
"Brattevannet",58.2682858399577,6.78086171027496,"NVE:vatnLnr:21834",21834,6.78086171027496,"Kvinesdal","Vest-Agder","NOR"
"Holevatn",58.304482333482,6.85015897514795,"NVE:vatnLnr:21784",21784,6.85015897514795,"Kvinesdal","Vest-Agder","NOR"
"Ytre Lona",58.3019985298501,6.82604577724421,"NVE:vatnLnr:21740",21740,6.82604577724421,"Kvinesdal","Vest-Agder","NOR"
"Hellevatnet",58.225942367761,7.03337030842311,"NVE:vatnLnr:11295",11295,7.03337030842311,"Lyngdal","Vest-Agder","NOR"
"Lelandsvatnet",58.2044065753433,7.29522812174348,"NVE:vatnLnr:1229",1229,7.29522812174348,"Lindesnes","Vest-Agder","NOR"
"Grubbevatnet",58.15674103299,7.19050008672379,"NVE:vatnLnr:11496",11496,7.19050008672379,"Lyngdal","Vest-Agder","NOR"
"Nedre Brådlandsvatnet",58.2385807275453,7.06445889374529,"NVE:vatnLnr:11260",11260,7.06445889374529,"Lyngdal","Vest-Agder","NOR"
"Prestvatnet",58.1041912265464,6.70710931959045,"NVE:vatnLnr:21950",21950,6.70710931959045,"Farsund","Vest-Agder","NOR"
"Nesheimvannet",58.0829910713931,6.68542510773815,"NVE:vatnLnr:21963",21963,6.68542510773815,"Farsund","Vest-Agder","NOR"
"Egsåvatn",58.581388248133,7.55904165687081,"NVE:vatnLnr:10185",10185,7.55904165687081,"Åseral","Vest-Agder","NOR"
"Eptevann",58.4236468868956,7.65909679736398,"NVE:vatnLnr:10793",10793,7.65909679736398,"Marnardal","Vest-Agder","NOR"
"Mannflåvatnet",58.3177575285899,7.52346647142311,"NVE:vatnLnr:1156",1156,7.52346647142311,"Marnardal","Vest-Agder","NOR"
"Eptevatnet",58.2506977700969,7.44739623371905,"NVE:vatnLnr:11240",11240,7.44739623371905,"Marnardal","Vest-Agder","NOR"
"Trælevatnet",58.2525002019088,7.62678023944408,"NVE:vatnLnr:11230",11230,7.62678023944408,"Songdalen","Vest-Agder","NOR"
"Djubeslandsvatnet",58.3007422145204,7.63899996172019,"NVE:vatnLnr:11125",11125,7.63899996172019,"Songdalen","Vest-Agder","NOR"
"Kvellandsvannet",58.335646971846,7.63604683568072,"NVE:vatnLnr:11042",11042,7.63604683568072,"Songdalen","Vest-Agder","NOR"
"Ramnåsvatnet",58.1798112947521,7.59144946851347,"NVE:vatnLnr:11448",11448,7.59144946851347,"Marnardal","Vest-Agder","NOR"
"Birkelandsvatnet",58.1633408813226,7.62450906840326,"NVE:vatnLnr:11498",11498,7.62450906840326,"Marnardal","Vest-Agder","NOR"
"Nomevatnet",58.1385946920875,7.57374283080649,"NVE:vatnLnr:11545",11545,7.57374283080649,"Søgne","Vest-Agder","NOR"
"Aurebekkvatnet",58.0514534694245,7.52613921307451,"NVE:vatnLnr:11688",11688,7.52613921307451,"Mandal","Vest-Agder","NOR"
"Svinstadvatnet",58.1413530701214,7.51404229994614,"NVE:vatnLnr:11558",11558,7.51404229994614,"Mandal","Vest-Agder","NOR"
"Djubovatnet",58.0368467113378,7.56668527426322,"NVE:vatnLnr:1186",1186,7.56668527426322,"Mandal","Vest-Agder","NOR"
"Furevatnet",58.119951625873,7.48206915235006,"NVE:vatnLnr:11604",11604,7.48206915235006,"Mandal","Vest-Agder","NOR"
"Moslandsvatnet",58.0808144009437,7.46922961937961,"NVE:vatnLnr:11656",11656,7.46922961937961,"Mandal","Vest-Agder","NOR"
"Eikelandsvatnet",58.1398643059154,7.48222025063666,"NVE:vatnLnr:11561",11561,7.48222025063666,"Mandal","Vest-Agder","NOR"
"Gåsevatnet",58.1518789823912,7.51552704871968,"NVE:vatnLnr:11528",11528,7.51552704871968,"Mandal","Vest-Agder","NOR"
"Upsåkervatnet",58.1062295252805,7.46369521279652,"NVE:vatnLnr:11624",11624,7.46369521279652,"Mandal","Vest-Agder","NOR"
"Ljosevatnet",58.0984614833996,7.46321920416763,"NVE:vatnLnr:11633",11633,7.46321920416763,"Mandal","Vest-Agder","NOR"
"Trånevannet",58.062590914846,7.66445119680831,"NVE:vatnLnr:11686",11686,7.66445119680831,"Søgne","Vest-Agder","NOR"
"Kimestadvannet",58.1519342338303,7.72657758006122,"NVE:vatnLnr:11535",11535,7.72657758006122,"Søgne","Vest-Agder","NOR"
"Sandvann",58.1621138101177,7.7186242824355,"NVE:vatnLnr:11512",11512,7.7186242824355,"Søgne","Vest-Agder","NOR"
"Donevannet",58.0799112188504,7.90129336791568,"NVE:vatnLnr:11661",11661,7.90129336791568,"Søgne","Vest-Agder","NOR"
"Rossevannet",58.1083025735428,7.89165660015054,"NVE:vatnLnr:2993",2993,7.89165660015054,"Søgne","Vest-Agder","NOR"
"Farvatnet",58.1472974674125,7.86638738044083,"NVE:vatnLnr:11541",11541,7.86638738044083,"Songdalen","Vest-Agder","NOR"
"Hommevatnet",58.1793332472183,7.70565510101054,"NVE:vatnLnr:66388",66388,7.70565510101054,"Marnardal","Vest-Agder","NOR"
"Tronstadvann",58.1553706747326,7.7552108320082,"NVE:vatnLnr:1185",1185,7.7552108320082,"Songdalen","Vest-Agder","NOR"
"Repstadvannet",58.1111196503607,7.75076978358018,"NVE:vatnLnr:11609",11609,7.75076978358018,"Søgne","Vest-Agder","NOR"
"Kleivsetvannet",58.1208135624577,7.66504148004304,"NVE:vatnLnr:11592",11592,7.66504148004304,"Søgne","Vest-Agder","NOR"
"Mevann",58.1275715225451,7.74985649687133,"NVE:vatnLnr:158452",158452,7.74985649687133,"Søgne","Vest-Agder","NOR"
"Birkelandsvatnet",58.1909901733721,7.75622624208053,"NVE:vatnLnr:11416",11416,7.75622624208053,"Songdalen","Vest-Agder","NOR"
"Trobbevatnet",58.1427399568875,7.79786379469328,"NVE:vatnLnr:11552",11552,7.79786379469328,"Songdalen","Vest-Agder","NOR"
"Hægelandsvannet",58.3832112497,7.73215609817371,"NVE:vatnLnr:10933",10933,7.73215609817371,"Vennesla","Vest-Agder","NOR"
"Sandtveitvannet",58.3720034794596,7.69905732833738,"NVE:vatnLnr:66548",66548,7.69905732833738,"Vennesla","Vest-Agder","NOR"
"Sandlandsvannet",58.3565066075654,7.69618659773328,"NVE:vatnLnr:10966",10966,7.69618659773328,"Vennesla","Vest-Agder","NOR"
"Sognevann",58.3186597299446,7.67566312559443,"NVE:vatnLnr:11078",11078,7.67566312559443,"Songdalen","Vest-Agder","NOR"
"Langen",62.823096544979,11.8785073505837,"NVE:vatnLnr:181",181,11.8785073505837,"Tydal","Sør-Trøndelag","NOR"
"Nesjøen",63.0315003324653,11.9910324824184,"NVE:vatnLnr:893",893,11.9910324824184,"Tydal","Sør-Trøndelag","NOR"
"Åbbårsjøen",62.7243016570069,11.8453417693651,"NVE:vatnLnr:35158",35158,11.8453417693651,"Røros","Sør-Trøndelag","NOR"
"Skarvatnet",62.6971550944581,9.5504551797425,"NVE:vatnLnr:2105",2105,9.5504551797425,"Oppdal","Sør-Trøndelag","NOR"
"Øyangsvatnet",63.4693156091186,9.67097810899798,"NVE:vatnLnr:977",977,9.67097810899798,"Agdenes","Sør-Trøndelag","NOR"
"Uggdalsvatnet",63.9587960820909,10.4098959704319,"NVE:vatnLnr:36733",36733,10.4098959704319,"Åfjord","Sør-Trøndelag","NOR"
"Skjerivatnet",63.9660556239475,10.5547745469598,"NVE:vatnLnr:36727",36727,10.5547745469598,"Åfjord","Sør-Trøndelag","NOR"
"Haravatnet",63.9850105770075,10.5952549056365,"NVE:vatnLnr:36712",36712,10.5952549056365,"Åfjord","Sør-Trøndelag","NOR"
"Husåsvatnet",63.0251191207373,9.44631139665631,"NVE:vatnLnr:38025",38025,9.44631139665631,"Rindal","Møre og Romsdal","NOR"
"Ytstetjønna",62.537337158583,7.26292070644167,"NVE:vatnLnr:31366",31366,7.26292070644167,"Vestnes","Møre og Romsdal","NOR"
"Fyllingsvatnet",62.5274883876659,6.68245568277479,"NVE:vatnLnr:1983",1983,6.68245568277479,"Skodje","Møre og Romsdal","NOR"
"Årsetvatnet",62.4063074708416,6.82033159810929,"NVE:vatnLnr:31531",31531,6.82033159810929,"Sykkylven","Møre og Romsdal","NOR"
"Hjørungdalsvatnet",62.3371508992039,6.06009537319299,"NVE:vatnLnr:30922",30922,6.06009537319299,"Hareid","Møre og Romsdal","NOR"
"Gusdalsvatnet",62.014705381338,5.56780897135493,"NVE:vatnLnr:31078",31078,5.56780897135493,"Vanylven","Møre og Romsdal","NOR"
"Sætrevatnet",62.0227288387347,5.65026234473491,"NVE:vatnLnr:31067",31067,5.65026234473491,"Vanylven","Møre og Romsdal","NOR"
"Skorgevatnet",61.9870456216809,5.46236931372096,"NVE:vatnLnr:1926",1926,5.46236931372096,"Selje","Sogn og Fjordane","NOR"
"Vassdalsvatnet",61.9666538167668,5.47992096049924,"NVE:vatnLnr:27897",27897,5.47992096049924,"Vågsøy","Sogn og Fjordane","NOR"
"Navevatnet",61.9576175185644,5.48815195146242,"NVE:vatnLnr:27923",27923,5.48815195146242,"Vågsøy","Sogn og Fjordane","NOR"
"Nesvatnet",61.5985550835764,5.98539868882014,"NVE:vatnLnr:28303",28303,5.98539868882014,"Naustdal","Sogn og Fjordane","NOR"
"Einevollsvatnet",61.4810200636541,5.58262890432689,"NVE:vatnLnr:28354",28354,5.58262890432689,"Naustdal","Sogn og Fjordane","NOR"
"Storevatnet",61.0838057779295,4.85344829262587,"NVE:vatnLnr:28876",28876,4.85344829262587,"Solund","Sogn og Fjordane","NOR"
"Skorsetvatnet",60.7336104626538,6.53714690182908,"NVE:vatnLnr:27260",27260,6.53714690182908,"Voss","Hordaland","NOR"
"Torevatnet",60.6707472330696,5.2204768622539,"NVE:vatnLnr:176528",176528,5.2204768622539,"Lindås","Hordaland","NOR"
"Nesvatnet",60.6320766692678,5.05783305195853,"NVE:vatnLnr:26358",26358,5.05783305195853,"Radøy","Hordaland","NOR"
"Sagavatnet",60.3508111377669,5.63616984620923,"NVE:vatnLnr:26764",26764,5.63616984620923,"Samnanger","Hordaland","NOR"
"Øvredalsvatnet",60.2783786024791,5.5517640766763,"NVE:vatnLnr:26880",26880,5.5517640766763,"Os","Hordaland","NOR"
"Nordbustadvatnet",59.9585937961407,5.54439649695819,"NVE:vatnLnr:21999",21999,5.54439649695819,"Tysnes","Hordaland","NOR"
"Åvendalsvatnet",58.3826670574536,6.13510355445462,"NVE:vatnLnr:21520",21520,6.13510355445462,"Eigersund","Rogaland","NOR"
"Gompevatn",58.3073457591675,6.7490985038909,"NVE:vatnLnr:1398",1398,6.7490985038909,"Flekkefjord","Vest-Agder","NOR"
"Store Minnesjøen",59.2298153397991,9.14107594042489,"NVE:vatnLnr:14463",14463,9.14107594042489,"Nome","Telemark","NOR"
"Øvre Stavsjø",59.2235521061289,9.26533916293686,"NVE:vatnLnr:6577",6577,9.26533916293686,"Skien","Telemark","NOR"
"Hullvann",58.9346765398505,9.39467137336266,"NVE:vatnLnr:1255",1255,9.39467137336266,"Kragerø","Telemark","NOR"
"Krokvann",58.8113297769637,9.21866694478298,"NVE:vatnLnr:8836",8836,9.21866694478298,"Kragerø","Telemark","NOR"
"Stølevann",58.8470763414471,9.21619601500632,"NVE:vatnLnr:8603",8603,9.21619601500632,"Kragerø","Telemark","NOR"
"Tveitvatnet",59.1283921242658,9.07746037966742,"NVE:vatnLnr:14839",14839,9.07746037966742,"Drangedal","Telemark","NOR"
"Hoseidvatnet",59.0152974423677,9.22158309797899,"NVE:vatnLnr:1241",1241,9.22158309797899,"Drangedal","Telemark","NOR"
"Øksne",59.5983678089753,9.9193268324587,"NVE:vatnLnr:583",583,9.9193268324587,"Øvre Eiker","Buskerud","NOR"
"Øyungen",61.22213583606,10.939639457923,"NVE:vatnLnr:32937",32937,10.939639457923,"Ringsaker","Hedmark","NOR"
"Langevatnet",60.2704535750597,9.82784059023746,"NVE:vatnLnr:7364",7364,9.82784059023746,"Ringerike","Buskerud","NOR"
"Torevatnet",60.2397989015325,9.87731469163709,"NVE:vatnLnr:603",603,9.87731469163709,"Ringerike","Buskerud","NOR"
"Langevatnet",60.2166877109357,9.81193669629168,"NVE:vatnLnr:7382",7382,9.81193669629168,"Ringerike","Buskerud","NOR"
"Trevatna",60.6482867467454,10.4352143931956,"NVE:vatnLnr:606",606,10.4352143931956,"Søndre Land","Oppland","NOR"
"Gjerdsjøen",60.5418889350462,10.4159305535375,"NVE:vatnLnr:4648",4648,10.4159305535375,"Gran","Oppland","NOR"
"Østre Bjonevatnet",60.5096387862335,10.2161685735731,"NVE:vatnLnr:605",605,10.2161685735731,"Gran","Oppland","NOR"
"Elgsjøen",60.2992932195596,10.6473105648661,"NVE:vatnLnr:4876",4876,10.6473105648661,"Lunner","Oppland","NOR"
"Grøa",60.3357258306839,10.7197843035284,"NVE:vatnLnr:186",186,10.7197843035284,"Lunner","Oppland","NOR"
"Einavatnet",60.5742337533692,10.626872300126,"NVE:vatnLnr:143",143,10.626872300126,"Vestre Toten","Oppland","NOR"
"Nevelvatnet",61.1965275368361,10.6136684232698,"NVE:vatnLnr:32981",32981,10.6136684232698,"Lillehammer","Oppland","NOR"
"Svarttjønnet",61.5387376717467,10.2936418727482,"NVE:vatnLnr:32488",32488,10.2936418727482,"Ringebu","Oppland","NOR"
"Heimtjønne",61.7561316522876,9.61007109853124,"NVE:vatnLnr:32342",32342,9.61007109853124,"Sel","Oppland","NOR"
"Stor-Lusa",61.9014415596547,8.61829145350535,"NVE:vatnLnr:30254",30254,8.61829145350535,"Lom","Oppland","NOR"
"Savalen",62.2606384008009,10.4889340652569,"NVE:vatnLnr:170",170,10.4889340652569,"Tynset","Hedmark","NOR"
"Vesle Follandstjønna",62.0424699259917,10.2991293141883,"NVE:vatnLnr:35935",35935,10.2991293141883,"Alvdal","Hedmark","NOR"
"Store Follandstjønna",62.0369526085113,10.3137072866179,"NVE:vatnLnr:35937",35937,10.3137072866179,"Alvdal","Hedmark","NOR"
"Klettjønna",61.9972350403848,10.3100665725654,"NVE:vatnLnr:32117",32117,10.3100665725654,"Alvdal","Hedmark","NOR"
"Breisjøen",61.9709869107257,10.2304292917048,"NVE:vatnLnr:271614",271614,10.2304292917048,"Alvdal","Hedmark","NOR"
"Veksen",61.5671866765116,11.3558020879767,"NVE:vatnLnr:284",284,11.3558020879767,"Rendalen","Hedmark","NOR"
"Nordre Valsjøen",61.5905490208506,11.3013760603317,"NVE:vatnLnr:33431",33431,11.3013760603317,"Rendalen","Hedmark","NOR"
"Søndre Valsjøen",61.578995356093,11.2908110238246,"NVE:vatnLnr:33436",33436,11.2908110238246,"Rendalen","Hedmark","NOR"
"Østersjøen",61.1149803361391,11.4524163613099,"NVE:vatnLnr:33675",33675,11.4524163613099,"Åmot","Hedmark","NOR"
"Nordre Fløgen",60.8037014857742,12.0355363870464,"NVE:vatnLnr:3674",3674,12.0355363870464,"Våler","Hedmark","NOR"
"Skasen",60.3896460300065,12.3192094859273,"NVE:vatnLnr:124",124,12.3192094859273,"Grue","Hedmark","NOR"
"Vesle Ossjøen",61.2253405822397,11.8492301949131,"NVE:vatnLnr:162",162,11.8492301949131,"Trysil","Hedmark","NOR"
"Røytjenn",59.8722817036492,11.6233343399751,"NVE:vatnLnr:3166",3166,11.6233343399751,"Aurskog-Høland","Akershus","NOR"
"Hølvannet",59.7770056706432,11.9086442382319,"NVE:vatnLnr:3221",3221,11.9086442382319,"Rømskog","Ãstfold","NOR"
"Lolandsvannet",58.2789374383219,7.89522889220926,"NVE:vatnLnr:11184",11184,7.89522889220926,"Vennesla","Vest-Agder","NOR"
"Stølsvannet",58.2672441743187,7.85064824567566,"NVE:vatnLnr:11214",11214,7.85064824567566,"Vennesla","Vest-Agder","NOR"
"Engelsvann",58.2617135705622,7.88418533085057,"NVE:vatnLnr:11227",11227,7.88418533085057,"Vennesla","Vest-Agder","NOR"
"Greibeslandsvannet",58.2706970073671,7.70886102092897,"NVE:vatnLnr:11208",11208,7.70886102092897,"Vennesla","Vest-Agder","NOR"
"Homevann",58.269325965565,7.75916194245206,"NVE:vatnLnr:11209",11209,7.75916194245206,"Vennesla","Vest-Agder","NOR"
"Hægelandsvann",58.2640480535105,7.77838027476313,"NVE:vatnLnr:11220",11220,7.77838027476313,"Vennesla","Vest-Agder","NOR"
"Fånefjorden",58.753899502924,7.80186609728981,"NVE:vatnLnr:1063",1063,7.80186609728981,"Bygland","Aust-Agder","NOR"
"Kosvatnet",58.4876095367901,7.57375692415208,"NVE:vatnLnr:66389",66389,7.57375692415208,"Evje og Hornnes","Aust-Agder","NOR"
"Bjørndalsvatn",58.5049531023049,7.55624220206396,"NVE:vatnLnr:1157",1157,7.55624220206396,"Evje og Hornnes","Aust-Agder","NOR"
"Herefossfjorden",58.4979422319439,8.33744669769427,"NVE:vatnLnr:1318",1318,8.33744669769427,"Birkenes","Aust-Agder","NOR"
"Berse",58.3232473841758,8.22347869543043,"NVE:vatnLnr:11075",11075,8.22347869543043,"Birkenes","Aust-Agder","NOR"
"Valetjønn",58.3198930909186,8.23696482086679,"NVE:vatnLnr:11091",11091,8.23696482086679,"Birkenes","Aust-Agder","NOR"
"Bjorvann",58.2862850173056,8.14689351225378,"NVE:vatnLnr:11173",11173,8.14689351225378,"Kristiansand","Vest-Agder","NOR"
"Studevannet",58.1980968761338,8.18582281173096,"NVE:vatnLnr:11410",11410,8.18582281173096,"Lillesand","Aust-Agder","NOR"
"Gladstadvannet",58.2352727940051,8.24852475372835,"NVE:vatnLnr:11305",11305,8.24852475372835,"Lillesand","Aust-Agder","NOR"
"Steinsvannet",58.2370443183081,8.21717528857124,"NVE:vatnLnr:11304",11304,8.21717528857124,"Lillesand","Aust-Agder","NOR"
"Austre Grimevannet",58.300087550408,8.37669085534565,"NVE:vatnLnr:1339",1339,8.37669085534565,"Lillesand","Aust-Agder","NOR"
"Snøløsvannet",58.4764412670412,8.46480096836576,"NVE:vatnLnr:10651",10651,8.46480096836576,"Froland","Aust-Agder","NOR"
"Smedvann",58.4620210179335,8.49081772409061,"NVE:vatnLnr:10724",10724,8.49081772409061,"Grimstad","Aust-Agder","NOR"
"Vigelandsvannet",58.4510356928786,8.51717833857878,"NVE:vatnLnr:1294",1294,8.51717833857878,"Arendal","Aust-Agder","NOR"
"Hemningtveitvann",58.4788715419805,8.49316076099255,"NVE:vatnLnr:10664",10664,8.49316076099255,"Grimstad","Aust-Agder","NOR"
"Gangvann",58.4861799590173,8.51364919429546,"NVE:vatnLnr:10636",10636,8.51364919429546,"Arendal","Aust-Agder","NOR"
"Hunsdalsvann",58.466524245946,8.46950317518879,"NVE:vatnLnr:10711",10711,8.46950317518879,"Grimstad","Aust-Agder","NOR"
"Landvikvannet",58.3253069808737,8.50873762234112,"NVE:vatnLnr:1315",1315,8.50873762234112,"Grimstad","Aust-Agder","NOR"
"Temse",58.3834388489776,8.63680886804758,"NVE:vatnLnr:10951",10951,8.63680886804758,"Grimstad","Aust-Agder","NOR"
"Krakstadvannet",58.5064859424563,8.74718295274883,"NVE:vatnLnr:10565",10565,8.74718295274883,"Arendal","Aust-Agder","NOR"
"Longumvannet",58.4926015910767,8.75795606730924,"NVE:vatnLnr:10538",10538,8.75795606730924,"Arendal","Aust-Agder","NOR"
"Risetjern",58.466373150247,8.64368587757853,"NVE:vatnLnr:10721",10721,8.64368587757853,"Arendal","Aust-Agder","NOR"
"Nordtjerna",58.4418869247634,8.65471710559772,"NVE:vatnLnr:10802",10802,8.65471710559772,"Arendal","Aust-Agder","NOR"
"Steinsvatn",58.7415075857767,8.60735599825285,"NVE:vatnLnr:9278",9278,8.60735599825285,"Åmli","Aust-Agder","NOR"
"Ljosvatn",58.7781953018932,8.57085196063405,"NVE:vatnLnr:9071",9071,8.57085196063405,"Åmli","Aust-Agder","NOR"
"Sandvatn",58.795924092353,8.59362272523999,"NVE:vatnLnr:8941",8941,8.59362272523999,"Åmli","Aust-Agder","NOR"
"Mjåvatn",58.7683139151152,8.59913398638508,"NVE:vatnLnr:9131",9131,8.59913398638508,"Åmli","Aust-Agder","NOR"
"Stavvatn",58.7566370336421,8.60345227864774,"NVE:vatnLnr:9169",9169,8.60345227864774,"Åmli","Aust-Agder","NOR"
"Vikvatn",58.74936565141,8.57523480508239,"NVE:vatnLnr:9204",9204,8.57523480508239,"Åmli","Aust-Agder","NOR"
"Bjellandsvannet",58.655626179619,8.9985982852263,"NVE:vatnLnr:9771",9771,8.9985982852263,"Tvedestrand","Aust-Agder","NOR"
"Aklandstjenna",58.724775292118,9.03490946198523,"NVE:vatnLnr:9375",9375,9.03490946198523,"Risør","Aust-Agder","NOR"
"Skarvann",58.7727044212732,9.22675967363004,"NVE:vatnLnr:1261",1261,9.22675967363004,"Risør","Aust-Agder","NOR"
"Molandsvann",58.7661195899374,9.04065889230738,"NVE:vatnLnr:9055",9055,9.04065889230738,"Gjerstad","Aust-Agder","NOR"
"Breidungen",58.7640278202512,9.14011777650376,"NVE:vatnLnr:9042",9042,9.14011777650376,"Risør","Aust-Agder","NOR"
"Tjenndalstjenna",58.725961880628,9.19617075405245,"NVE:vatnLnr:9384",9384,9.19617075405245,"Risør","Aust-Agder","NOR"
"Fievannet",58.6779312635894,9.1992324297663,"NVE:vatnLnr:9639",9639,9.1992324297663,"Risør","Aust-Agder","NOR"
"Selåsvann",58.6905528050164,8.73484425502457,"NVE:vatnLnr:9566",9566,8.73484425502457,"Vegårshei","Aust-Agder","NOR"
"Vegår",58.792161593579,8.781260856072,"NVE:vatnLnr:1258",1258,8.781260856072,"Vegårshei","Aust-Agder","NOR"
"Hellersvatnet",58.7724650782432,8.6525234384983,"NVE:vatnLnr:9084",9084,8.6525234384983,"Åmli","Aust-Agder","NOR"
"Holmvann",58.8338971156407,8.93768011459341,"NVE:vatnLnr:8699",8699,8.93768011459341,"Vegårshei","Aust-Agder","NOR"
"Simonstadvannet",58.7737224849,8.97592656026979,"NVE:vatnLnr:9096",9096,8.97592656026979,"Vegårshei","Aust-Agder","NOR"
"Bjørnåsvannet",58.7964188375217,8.96989143408969,"NVE:vatnLnr:8936",8936,8.96989143408969,"Vegårshei","Aust-Agder","NOR"
"Skorstølvatnet",58.7998714816627,9.04033863935092,"NVE:vatnLnr:8905",8905,9.04033863935092,"Gjerstad","Aust-Agder","NOR"
"Midtvatnet",58.8084115299634,9.09930638593283,"NVE:vatnLnr:1263",1263,9.09930638593283,"Gjerstad","Aust-Agder","NOR"
"Vasstøvannet",58.7891830350406,9.10399836468963,"NVE:vatnLnr:1262",1262,9.10399836468963,"Gjerstad","Aust-Agder","NOR"
"Bandak",59.4095244558532,8.23705290549103,"NVE:vatnLnr:22",22,8.23705290549103,"Tokke","Telemark","NOR"
"Seljordsvatn",59.4491170467149,8.73824256312841,"NVE:vatnLnr:11",11,8.73824256312841,"Seljord","Telemark","NOR"
"Elgsjø",59.5871146751591,9.36257624459694,"NVE:vatnLnr:6264",6264,9.36257624459694,"Notodden","Telemark","NOR"
"Heddalsvatnet",59.5141105131502,9.28769521448564,"NVE:vatnLnr:1",1,9.28769521448564,"Sauherad","Telemark","NOR"
"Hauglandstjørna",59.2662972145122,9.10957297413639,"NVE:vatnLnr:14374",14374,9.10957297413639,"Nome","Telemark","NOR"
"Tyrivatn",59.262245761394,9.13943357986294,"NVE:vatnLnr:14381",14381,9.13943357986294,"Nome","Telemark","NOR"
"Flåvatn",59.3078264216515,8.81572999468267,"NVE:vatnLnr:7",7,8.81572999468267,"Kviteseid","Telemark","NOR"
"Flåte",59.0622203383305,9.4614328125135,"NVE:vatnLnr:110",110,9.4614328125135,"Bamble","Telemark","NOR"
"Kallestadvannet",59.0852176569774,9.35643347458892,"NVE:vatnLnr:6676",6676,9.35643347458892,"Skien","Telemark","NOR"
"Gislesjøen",59.0999845214402,9.39965911885679,"NVE:vatnLnr:6671",6671,9.39965911885679,"Skien","Telemark","NOR"
"Hjellevannet",59.1994818079982,9.59860193623683,"NVE:vatnLnr:6592",6592,9.59860193623683,"Skien","Telemark","NOR"
"Siljantjenn",59.1150221728748,9.50733268643561,"NVE:vatnLnr:6656",6656,9.50733268643561,"Bamble","Telemark","NOR"
"Hellestveitvann",59.0874750597057,9.51551842930771,"NVE:vatnLnr:6677",6677,9.51551842930771,"Bamble","Telemark","NOR"
"Vestre Engvann",58.9768389447263,9.49565688246207,"NVE:vatnLnr:7799",7799,9.49565688246207,"Bamble","Telemark","NOR"
"Østre Engvann",58.9851725383676,9.53029525413334,"NVE:vatnLnr:7740",7740,9.53029525413334,"Bamble","Telemark","NOR"
"Bakkevannet",58.9575760408725,9.43660682956551,"NVE:vatnLnr:7904",7904,9.43660682956551,"Bamble","Telemark","NOR"
"Barlindtjenn",58.8630201167247,9.27329698985074,"NVE:vatnLnr:80987",80987,9.27329698985074,"Kragerø","Telemark","NOR"
"Frøviktjenn",58.862308283385,9.28844648471448,"NVE:vatnLnr:31084",31084,9.28844648471448,"Kragerø","Telemark","NOR"
"Leivann",58.7846644413744,9.31273250040861,"NVE:vatnLnr:1260",1260,9.31273250040861,"Kragerø","Telemark","NOR"
"Farsjø",58.9488732241564,9.32378462557518,"NVE:vatnLnr:7912",7912,9.32378462557518,"Kragerø","Telemark","NOR"
"Eidsvann",58.8156843173048,9.31532175225062,"NVE:vatnLnr:8805",8805,9.31532175225062,"Kragerø","Telemark","NOR"
"Lindheimsvann",58.8655344837308,9.25890449897953,"NVE:vatnLnr:65889",65889,9.25890449897953,"Kragerø","Telemark","NOR"
"Fossvann",58.855412522602,9.23824883419852,"NVE:vatnLnr:8574",8574,9.23824883419852,"Kragerø","Telemark","NOR"
"Tveitereidvann",58.9158257704657,9.33212405528499,"NVE:vatnLnr:8159",8159,9.33212405528499,"Kragerø","Telemark","NOR"
"Farris",59.1259184195905,9.9447113358722,"NVE:vatnLnr:429",429,9.9447113358722,"Larvik","Vestfold","NOR"
"Tverrfjorden",59.0439969586825,9.90460383609841,"NVE:vatnLnr:433",433,9.90460383609841,"Larvik","Vestfold","NOR"
"Strengsdalsvannet",59.1905634048769,10.415249770069,"NVE:vatnLnr:5885",5885,10.415249770069,"Nøtterøy","Vestfold","NOR"
"Akersvannet",59.2473064586566,10.3286775930555,"NVE:vatnLnr:314",314,10.3286775930555,"Stokke","Vestfold","NOR"
"Gallisvannet",59.2285148530792,10.1406824021837,"NVE:vatnLnr:5881",5881,10.1406824021837,"Andebu","Vestfold","NOR"
"Stisvannet",59.2193031953344,10.1370550359421,"NVE:vatnLnr:132249",132249,10.1370550359421,"Andebu","Vestfold","NOR"
"Langevannet",59.2986630362803,10.0376520496728,"NVE:vatnLnr:5862",5862,10.0376520496728,"Andebu","Vestfold","NOR"
"Steinsvannet",59.3034828576831,10.0693183628418,"NVE:vatnLnr:5861",5861,10.0693183628418,"Andebu","Vestfold","NOR"
"Askjemvannet",59.2880610868035,10.1897325583448,"NVE:vatnLnr:5863",5863,10.1897325583448,"Andebu","Vestfold","NOR"
"Stålerødvannet",59.293613436041,10.1190518898708,"NVE:vatnLnr:5864",5864,10.1190518898708,"Andebu","Vestfold","NOR"
"Borrevannet",59.4114467643207,10.4338926224429,"NVE:vatnLnr:312",312,10.4338926224429,"Borre","Vestfold","NOR"
"Korssjøen",59.4658372813074,10.1495966582466,"NVE:vatnLnr:5815",5815,10.1495966582466,"Holmestrand","Vestfold","NOR"
"Revovannet",59.4650457328462,10.1686478601498,"NVE:vatnLnr:313",313,10.1686478601498,"Ramnes","Vestfold","NOR"
"Bergsvannet",59.4625927297571,10.0981604824562,"NVE:vatnLnr:5816",5816,10.0981604824562,"Hof","Vestfold","NOR"
"Grennesvannet",59.4957304811723,10.0964193043754,"NVE:vatnLnr:5799",5799,10.0964193043754,"Hof","Vestfold","NOR"
"Haugestadvannet",59.5355615559568,10.1156125215295,"NVE:vatnLnr:543",543,10.1156125215295,"Hof","Vestfold","NOR"
"Hillestadvannet",59.5146802677796,10.1562044998219,"NVE:vatnLnr:544",544,10.1562044998219,"Holmestrand","Vestfold","NOR"
"Bergsvannet",59.5818818326491,10.0678525080038,"NVE:vatnLnr:519",519,10.0678525080038,"Hof","Vestfold","NOR"
"Eikeren",59.6484311023852,9.94001576344508,"NVE:vatnLnr:542",542,9.94001576344508,"Øvre Eiker","Buskerud","NOR"
"Goksjø",59.1739042649996,10.1459991754923,"NVE:vatnLnr:378",378,10.1459991754923,"Sandefjord","Vestfold","NOR"
"Blindevatnet",59.5854038263524,10.3362126745509,"NVE:vatnLnr:5771",5771,10.3362126745509,"Sande","Vestfold","NOR"
"Kaldmovannet",59.6084347570944,10.124764021406,"NVE:vatnLnr:5767",5767,10.124764021406,"Sande","Vestfold","NOR"
"Røysjø",59.6646485257079,10.3043098434683,"NVE:vatnLnr:5706",5706,10.3043098434683,"Sande","Vestfold","NOR"
"Suluvann",59.614633064271,10.2843849021768,"NVE:vatnLnr:5755",5755,10.2843849021768,"Sande","Vestfold","NOR"
"Langevann",59.6542669692656,10.2978316784405,"NVE:vatnLnr:5717",5717,10.2978316784405,"Sande","Vestfold","NOR"
"Søndre Toresvann",59.637320960941,10.2979775745539,"NVE:vatnLnr:5740",5740,10.2979775745539,"Sande","Vestfold","NOR"
"Nordre Toresvann",59.6428669984491,10.2965080581079,"NVE:vatnLnr:205749",205749,10.2965080581079,"Sande","Vestfold","NOR"
"Øyvannet",59.8236222344427,9.99756399720458,"NVE:vatnLnr:5511",5511,9.99756399720458,"Nedre Eiker","Buskerud","NOR"
"Prestevannet",59.6360614328146,10.0681756383936,"NVE:vatnLnr:5747",5747,10.0681756383936,"Sande","Vestfold","NOR"
"Letmolivatnet",59.9322619756145,9.58751492797944,"NVE:vatnLnr:5941",5941,9.58751492797944,"Flesberg","Buskerud","NOR"
"Lille Stikkvannet",59.6431098462108,10.5305726087815,"NVE:vatnLnr:5733",5733,10.5305726087815,"Hurum","Buskerud","NOR"
"Stikkvannet",59.6312585192133,10.5326012004938,"NVE:vatnLnr:5744",5744,10.5326012004938,"Hurum","Buskerud","NOR"
"Rødbyvannet",59.5822434651757,10.4859654082575,"NVE:vatnLnr:309",309,10.4859654082575,"Hurum","Buskerud","NOR"
"Nåbyvann",59.6640126818331,10.4814891329301,"NVE:vatnLnr:5713",5713,10.4814891329301,"Hurum","Buskerud","NOR"
"Bjørvann",59.6726189215236,10.4925571785776,"NVE:vatnLnr:5701",5701,10.4925571785776,"Hurum","Buskerud","NOR"
"Sandungen",59.6470563414598,10.475772667615,"NVE:vatnLnr:310",310,10.475772667615,"Hurum","Buskerud","NOR"
"Mørkvannet",59.661283377002,10.5143503719365,"NVE:vatnLnr:5704",5704,10.5143503719365,"Hurum","Buskerud","NOR"
"Galtsjøen",61.8905063324981,11.7410296672808,"NVE:vatnLnr:1355",1355,11.7410296672808,"Engerdal","Hedmark","NOR"
"Engeren",61.6002985965264,12.0372757136973,"NVE:vatnLnr:1351",1351,12.0372757136973,"Trysil","Hedmark","NOR"
"Søndre Flersjoa",61.2325045719143,12.7895086684474,"NVE:vatnLnr:33612",33612,12.7895086684474,"Trysil","Hedmark","NOR"
"Mellom-Røgden",60.4970877928988,12.5411235256002,"NVE:vatnLnr:349",349,12.5411235256002,"Grue","Hedmark","NOR"
"Nordre Røgden",60.54527774961,12.5709817267296,"NVE:vatnLnr:350",350,12.5709817267296,"Åsnes","Hedmark","NOR"
"Røgden",60.4179083343261,12.519163300485,"NVE:vatnLnr:348",348,12.519163300485,"Grue","Hedmark","NOR"
"Kjerkesjøen",60.3514169206154,12.4891381538399,"NVE:vatnLnr:4013",4013,12.4891381538399,"Grue","Hedmark","NOR"
"Utgardsjøen",60.0214699158783,12.3820011525136,"NVE:vatnLnr:358",358,12.3820011525136,"Kongsvinger","Hedmark","NOR"
"Varaldsjøen",60.1277853267464,12.4557106123999,"NVE:vatnLnr:360",360,12.4557106123999,"Kongsvinger","Hedmark","NOR"
"Søndre Hærsjøen",60.0921433108127,12.399118375874,"NVE:vatnLnr:370",370,12.399118375874,"Kongsvinger","Hedmark","NOR"
"Nordre Hærsjøen",60.1144243313657,12.3794038980003,"NVE:vatnLnr:371",371,12.3794038980003,"Kongsvinger","Hedmark","NOR"
"Møkeren",60.168093882192,12.3566217446479,"NVE:vatnLnr:359",359,12.3566217446479,"Kongsvinger","Hedmark","NOR"
"Ingelsrudsjøen",59.9303625635928,12.0790308829712,"NVE:vatnLnr:3095",3095,12.0790308829712,"Eidskog","Hedmark","NOR"
"Søndre Billingen",60.024963032121,12.2867183136909,"NVE:vatnLnr:362",362,12.2867183136909,"Eidskog","Hedmark","NOR"
"Nordre Billingen",60.0610703051194,12.2695514801698,"NVE:vatnLnr:363",363,12.2695514801698,"Eidskog","Hedmark","NOR"
"Nessjøen",59.9848021290187,12.2169398357056,"NVE:vatnLnr:367",367,12.2169398357056,"Eidskog","Hedmark","NOR"
"Vesle Børen",60.0384470859691,11.8484114936846,"NVE:vatnLnr:4377",4377,11.8484114936846,"Eidskog","Hedmark","NOR"
"Store Børen",60.0514269319319,11.864084788899,"NVE:vatnLnr:4359",4359,11.864084788899,"Eidskog","Hedmark","NOR"
"Vesle Helgesjøen",59.9003257517276,12.040599841366,"NVE:vatnLnr:366",366,12.040599841366,"Eidskog","Hedmark","NOR"
"Holmsjøen",59.9033159983008,12.107619002909,"NVE:vatnLnr:365",365,12.107619002909,"Eidskog","Hedmark","NOR"
"Harstadsjøen",59.9318450309749,12.0027852559034,"NVE:vatnLnr:3100",3100,12.0027852559034,"Eidskog","Hedmark","NOR"
"Havsjøen",59.9960509748266,11.8360477606277,"NVE:vatnLnr:357",357,11.8360477606277,"Eidskog","Hedmark","NOR"
"Gaustadsjøen",59.9733521010311,12.1400978431828,"NVE:vatnLnr:3059",3059,12.1400978431828,"Eidskog","Hedmark","NOR"
"Hesbølsjøen",59.9942827666748,12.1148352483847,"NVE:vatnLnr:3044",3044,12.1148352483847,"Eidskog","Hedmark","NOR"
"Kroksjølungen",59.8910904847363,11.8241321072192,"NVE:vatnLnr:3141",3141,11.8241321072192,"Eidskog","Hedmark","NOR"
"Viksjøen",60.0123009292868,11.7844518440732,"NVE:vatnLnr:355",355,11.7844518440732,"Nesodden","Akershus","NOR"
"Mjær",59.7025707222727,11.0528209638869,"NVE:vatnLnr:292",292,11.0528209638869,"Enebakk","Akershus","NOR"
"Vestre Røyrtjenn",59.6894905493871,11.5700460456679,"NVE:vatnLnr:3296",3296,11.5700460456679,"Aurskog-Høland","Akershus","NOR"
"Mangen",59.9670399325709,11.7875300957209,"NVE:vatnLnr:354",354,11.7875300957209,"Aurskog-Høland","Akershus","NOR"
"Nesøytjernet",59.8671447215968,10.5265706473171,"NVE:vatnLnr:5421",5421,10.5265706473171,"Asker","Akershus","NOR"
"Verkensvannet",59.8126627223439,10.362288643251,"NVE:vatnLnr:2478",2478,10.362288643251,"Asker","Akershus","NOR"
"Finnsrudvannet",59.8309612610466,10.3857009993714,"NVE:vatnLnr:5497",5497,10.3857009993714,"Asker","Akershus","NOR"
"Oppsjø",59.8154541948091,10.3861133913269,"NVE:vatnLnr:5534",5534,10.3861133913269,"Asker","Akershus","NOR"
"Store Sandungen",59.8734319509949,10.3642196890155,"NVE:vatnLnr:5402",5402,10.3642196890155,"Asker","Akershus","NOR"
"Gjellumvannet",59.7933720840608,10.4395677786876,"NVE:vatnLnr:2477",2477,10.4395677786876,"Asker","Akershus","NOR"
"Padderudvannet",59.8224190146235,10.3585572684052,"NVE:vatnLnr:5521",5521,10.3585572684052,"Asker","Akershus","NOR"
"Bondivannet",59.8198666371926,10.4343457243136,"NVE:vatnLnr:5509",5509,10.4343457243136,"Asker","Akershus","NOR"
"Semsvannet",59.8584253346149,10.4218180044977,"NVE:vatnLnr:5427",5427,10.4218180044977,"Asker","Akershus","NOR"
"Dælivannet",59.9215404431461,10.5407908366465,"NVE:vatnLnr:5339",5339,10.5407908366465,"Bærum","Akershus","NOR"
"Steinstjernet",59.9364300301336,10.5325434009637,"NVE:vatnLnr:5320",5320,10.5325434009637,"Bærum","Akershus","NOR"
"Burudvann",59.9735828218492,10.5136109283733,"NVE:vatnLnr:5255",5255,10.5136109283733,"Bærum","Akershus","NOR"
"Stovivannet",59.9082456704387,10.4516791062818,"NVE:vatnLnr:5354",5354,10.4516791062818,"Bærum","Akershus","NOR"
"Bogstadvannet",59.9719438354395,10.6198152923236,"NVE:vatnLnr:5252",5252,10.6198152923236,"Oslo","Oslo","NOR"
"Maridalsvannet",59.9848186967235,10.7769957469294,"NVE:vatnLnr:298",298,10.7769957469294,"Oslo","Oslo","NOR"
"Sognsvann",59.974845064604,10.7283347263471,"NVE:vatnLnr:5245",5245,10.7283347263471,"Oslo","Oslo","NOR"
"Gjersjøen",59.7843629143985,10.7825464966894,"NVE:vatnLnr:297",297,10.7825464966894,"Oppegård","Akershus","NOR"
"Langen",59.7559058847303,10.9559302394902,"NVE:vatnLnr:294",294,10.9559302394902,"Ski","Akershus","NOR"
"Midsjøvannet",59.7305150142199,10.8826976697815,"NVE:vatnLnr:5646",5646,10.8826976697815,"Ski","Akershus","NOR"
"Nærevannet",59.7261173394128,10.9013421408806,"NVE:vatnLnr:5645",5645,10.9013421408806,"Ski","Akershus","NOR"
"Rullestadtjernet",59.7283352383051,10.8561162304122,"NVE:vatnLnr:5650",5650,10.8561162304122,"Ski","Akershus","NOR"
"Noretjernet",59.4495119068917,10.7095694019633,"NVE:vatnLnr:5820",5820,10.7095694019633,"Moss","Ãstfold","NOR"
"Bæretjernet",59.5514912420246,10.9205276752889,"NVE:vatnLnr:5782",5782,10.9205276752889,"Hobøl","Ãstfold","NOR"
"Bølertjernet",59.5670703658552,10.9167889757402,"NVE:vatnLnr:5778",5778,10.9167889757402,"Hobøl","Ãstfold","NOR"
"Brønnerødtjern",59.4337388910824,10.8021634898256,"NVE:vatnLnr:5915",5915,10.8021634898256,"Våler","Ãstfold","NOR"
"Bjørnrødvann",59.4455860792535,10.8489632219057,"NVE:vatnLnr:5819",5819,10.8489632219057,"Våler","Ãstfold","NOR"
"Ravnsjøen",59.4024731191468,10.9999934773197,"NVE:vatnLnr:5828",5828,10.9999934773197,"Våler","Ãstfold","NOR"
"Sæbyvannet",59.4272023518313,10.9826856206189,"NVE:vatnLnr:295",295,10.9826856206189,"Våler","Ãstfold","NOR"
"Tjernetjernet",59.3784157242605,11.0395520533065,"NVE:vatnLnr:5836",5836,11.0395520533065,"Sarpsborg","Ãstfold","NOR"
"Tunevannet",59.3081232791851,11.0948371022906,"NVE:vatnLnr:3451",3451,11.0948371022906,"Sarpsborg","Ãstfold","NOR"
"Isesjøen",59.2762032947972,11.2268392650124,"NVE:vatnLnr:133",133,11.2268392650124,"Sarpsborg","Ãstfold","NOR"
"Børtevannet",59.2680520083413,11.3155704157839,"NVE:vatnLnr:3470",3470,11.3155704157839,"Sarpsborg","Ãstfold","NOR"
"Folkevann",59.0560844974546,11.5050428623049,"NVE:vatnLnr:3597",3597,11.5050428623049,"Halden","Ãstfold","NOR"
"Femsjøen",59.150042162087,11.494906614929,"NVE:vatnLnr:316",316,11.494906614929,"Halden","Ãstfold","NOR"
"Søndre Boksjø",59.0305739130347,11.6988622198984,"NVE:vatnLnr:343",343,11.6988622198984,"Halden","Ãstfold","NOR"
"Aspern",59.1591979936111,11.7065777860304,"NVE:vatnLnr:318",318,11.7065777860304,"Aremark","Ãstfold","NOR"
"Korstjern",59.1722472228389,11.7643903888385,"NVE:vatnLnr:3534",3534,11.7643903888385,"Aremark","Ãstfold","NOR"
"Rømsjøen",59.7036186206071,11.821555334607,"NVE:vatnLnr:373",373,11.821555334607,"Rømskog","Ãstfold","NOR"
"Kolbjørnviksjøen",59.3221158169843,11.5752248124703,"NVE:vatnLnr:3444",3444,11.5752248124703,"Marker","Ãstfold","NOR"
"Skjølja",59.3632985692203,11.5232928880513,"NVE:vatnLnr:3435",3435,11.5232928880513,"Rakkestad","Ãstfold","NOR"
"Skjeklesjøen",59.2690235421916,11.4452153666238,"NVE:vatnLnr:135",135,11.4452153666238,"Rakkestad","Ãstfold","NOR"
"Rørvannet",59.3434525900314,11.5546060868051,"NVE:vatnLnr:3441",3441,11.5546060868051,"Rakkestad","Ãstfold","NOR"
"Langsjø",58.9534638654955,9.29670695803028,"NVE:vatnLnr:7958",7958,9.29670695803028,"Kragerø","Telemark","NOR"
"Barlandstjenna",58.8259634514285,9.29022137740157,"NVE:vatnLnr:8770",8770,9.29022137740157,"Kragerø","Telemark","NOR"
"Hemnessjøen",59.6823064088016,11.4488285366793,"NVE:vatnLnr:327",327,11.4488285366793,"Aurskog-Høland","Akershus","NOR"
"Bjørkelangen",59.8501343797235,11.5343355991446,"NVE:vatnLnr:330",330,11.5343355991446,"Aurskog-Høland","Akershus","NOR"
"Rokkevannet",59.2024250087509,11.3431218744476,"NVE:vatnLnr:3523",3523,11.3431218744476,"Halden","Ãstfold","NOR"
"Gjølsjøen",59.4494875724908,11.685622160713,"NVE:vatnLnr:334",334,11.685622160713,"Marker","Ãstfold","NOR"
"Nestjern",59.0896719068664,11.7758348146046,"NVE:vatnLnr:3569",3569,11.7758348146046,"Aremark","Ãstfold","NOR"
"Nedre Sandvannet",59.2665744513,11.5033661293196,"NVE:vatnLnr:3477",3477,11.5033661293196,"Rakkestad","Ãstfold","NOR"
"Øvre Sandvannet",59.2729694805236,11.5250463279645,"NVE:vatnLnr:3474",3474,11.5250463279645,"Rakkestad","Ãstfold","NOR"
"Rødenessjøen",59.560145650376,11.609657834383,"NVE:vatnLnr:323",323,11.609657834383,"Marker","Ãstfold","NOR"
"Skinnarbutjern",59.3535161728747,11.7197133731078,"NVE:vatnLnr:3437",3437,11.7197133731078,"Marker","Ãstfold","NOR"
"Aremarksjøen",59.262957349695,11.6710406101175,"NVE:vatnLnr:320",320,11.6710406101175,"Aremark","Ãstfold","NOR"
"Nøklevann",59.597059224356,11.4799509836006,"NVE:vatnLnr:3348",3348,11.4799509836006,"Trøgstad","Ãstfold","NOR"
"Grefslisjøen",59.6222991004696,11.40110893179,"NVE:vatnLnr:3336",3336,11.40110893179,"Trøgstad","Ãstfold","NOR"
"Halsjøen",60.8776585763984,12.316716734255,"NVE:vatnLnr:159",159,12.316716734255,"Våler","Hedmark","NOR"
"Lindsjøen",60.8067448005999,12.2676909710201,"NVE:vatnLnr:3670",3670,12.2676909710201,"Åsnes","Hedmark","NOR"
"Høgsjøen",60.8422361616049,12.2692087635222,"NVE:vatnLnr:3654",3654,12.2692087635222,"Åsnes","Hedmark","NOR"
"Hukusjøen",60.5128816406873,11.9425324548302,"NVE:vatnLnr:158",158,11.9425324548302,"Åsnes","Hedmark","NOR"
"Namnsjøen",60.5110669889081,12.155224063788,"NVE:vatnLnr:157",157,12.155224063788,"Grue","Hedmark","NOR"
"Bureien",60.2742577179221,12.2107177704628,"NVE:vatnLnr:123",123,12.2107177704628,"Kongsvinger","Hedmark","NOR"
"Sigernessjøen",60.1219266162751,12.0390370576662,"NVE:vatnLnr:364",364,12.0390370576662,"Kongsvinger","Hedmark","NOR"
"Føskersjøen",60.1506002383785,12.0260491400001,"NVE:vatnLnr:4211",4211,12.0260491400001,"Kongsvinger","Hedmark","NOR"
"Bæreia",60.1571916659558,11.9709325533959,"NVE:vatnLnr:4203",4203,11.9709325533959,"Kongsvinger","Hedmark","NOR"
"Rokosjøen",60.7877842302418,11.4469314120522,"NVE:vatnLnr:253",253,11.4469314120522,"Løten","Hedmark","NOR"
"Hersjøen",60.2196297866988,11.1551725797294,"NVE:vatnLnr:4158",4158,11.1551725797294,"Ullensaker","Akershus","NOR"
"Damtjern",59.6181459877424,11.4725535158933,"NVE:vatnLnr:3342",3342,11.4725535158933,"Aurskog-Høland","Akershus","NOR"
"Losna",61.3713707522757,10.2563786384528,"NVE:vatnLnr:144",144,10.2563786384528,"Øyer","Oppland","NOR"
"Atnsjøen",61.8753044689928,10.1641632679871,"NVE:vatnLnr:126",126,10.1641632679871,"Stor-Elvdal","Hedmark","NOR"
"Storsjøen",61.547749199744,11.2413225111687,"NVE:vatnLnr:125",125,11.2413225111687,"Rendalen","Hedmark","NOR"
"Nugguren",60.313589144482,12.0762453512002,"NVE:vatnLnr:122",122,12.0762453512002,"Kongsvinger","Hedmark","NOR"
"Lundevann",59.1481882524864,9.73110885184222,"NVE:vatnLnr:6634",6634,9.73110885184222,"Porsgrunn","Telemark","NOR"
"Steinsjøen",60.5175926972389,11.0667596351173,"NVE:vatnLnr:4662",4662,11.0667596351173,"Eidsvoll","Akershus","NOR"
"Myrsjøen",60.5503708922797,11.0058387469035,"NVE:vatnLnr:4632",4632,11.0058387469035,"Østre Toten","Oppland","NOR"
"Store Øyungen",60.5586356268375,11.0073374586448,"NVE:vatnLnr:4618",4618,11.0073374586448,"Østre Toten","Oppland","NOR"
"Hersjøen",60.5315099557811,11.0357171816516,"NVE:vatnLnr:252",252,11.0357171816516,"Østre Toten","Oppland","NOR"
"Skjellungen",60.5474346323491,10.9793940056037,"NVE:vatnLnr:4636",4636,10.9793940056037,"Østre Toten","Oppland","NOR"
"Hommelsjøen",60.5327305466441,11.0113478034137,"NVE:vatnLnr:4653",4653,11.0113478034137,"Østre Toten","Oppland","NOR"
"Rønningstjernet",60.5625765296073,10.9648064571977,"NVE:vatnLnr:4612",4612,10.9648064571977,"Østre Toten","Oppland","NOR"
"Mørksjøen",60.5251775842675,11.0211180288067,"NVE:vatnLnr:4658",4658,11.0211180288067,"Østre Toten","Oppland","NOR"
"Brennsætersjøen",60.5320344154756,10.9572986833933,"NVE:vatnLnr:4651",4651,10.9572986833933,"Østre Toten","Oppland","NOR"
"Garsjøen",60.551226263903,10.9563202517313,"NVE:vatnLnr:4627",4627,10.9563202517313,"Østre Toten","Oppland","NOR"
"Øvre Moksjøen",61.2591437994491,10.6114768303458,"NVE:vatnLnr:32889",32889,10.6114768303458,"Øyer","Oppland","NOR"
"Nordre Ulvsjøen",61.273733549035,11.9735684845686,"NVE:vatnLnr:33602",33602,11.9735684845686,"Trysil","Hedmark","NOR"
"Søndre Ulvsjøen",61.2547549557741,12.0023697782418,"NVE:vatnLnr:33611",33611,12.0023697782418,"Trysil","Hedmark","NOR"
"Holsjøen",60.6443942448464,11.6246561797645,"NVE:vatnLnr:3770",3770,11.6246561797645,"Våler","Hedmark","NOR"
"Søndre Fløgen",60.7880603122873,12.025439604757,"NVE:vatnLnr:3687",3687,12.025439604757,"Våler","Hedmark","NOR"
"Finnsrudtjennet",60.0011508466258,12.3086652933761,"NVE:vatnLnr:3043",3043,12.3086652933761,"Eidskog","Hedmark","NOR"
"Stangnessjøen",59.9551047064863,12.0584679702245,"NVE:vatnLnr:3073",3073,12.0584679702245,"Eidskog","Hedmark","NOR"
"Veslesjøen",59.8807944676428,11.9185325033897,"NVE:vatnLnr:352",352,11.9185325033897,"Eidskog","Hedmark","NOR"
"Skjervangen",59.9120227607255,11.8921202089942,"NVE:vatnLnr:353",353,11.8921202089942,"Eidskog","Hedmark","NOR"
"Råsen",60.4089283806645,11.505204018778,"NVE:vatnLnr:152",152,11.505204018778,"Nord-Odal","Hedmark","NOR"
"Flolangen",60.0376096922633,11.543141475673,"NVE:vatnLnr:4372",4372,11.543141475673,"Nesodden","Akershus","NOR"
"Lyseren",59.6946140780551,11.1169806459601,"NVE:vatnLnr:137",137,11.1169806459601,"Spydeberg","Ãstfold","NOR"
"Setten",59.8218100471293,11.6803961420647,"NVE:vatnLnr:326",326,11.6803961420647,"Aurskog-Høland","Akershus","NOR"
"Mjermen",59.7436448407879,11.6361148541721,"NVE:vatnLnr:325",325,11.6361148541721,"Aurskog-Høland","Akershus","NOR"
"Store Langsjøen",59.857168319822,11.5895331344133,"NVE:vatnLnr:341",341,11.5895331344133,"Aurskog-Høland","Akershus","NOR"
"Kjennstjernet",59.5615577745248,10.7337706685422,"NVE:vatnLnr:5781",5781,10.7337706685422,"Vestby","Akershus","NOR"
"Tvetervann",59.2421779080951,11.2470911875571,"NVE:vatnLnr:3497",3497,11.2470911875571,"Sarpsborg","Ãstfold","NOR"
"Store Erte",59.1131347736999,11.5723692029941,"NVE:vatnLnr:339",339,11.5723692029941,"Halden","Ãstfold","NOR"
"Frønessjøen",59.4407279045582,11.5686784941474,"NVE:vatnLnr:136",136,11.5686784941474,"Marker","Ãstfold","NOR"
"Måstadtjern",59.7215794166293,11.3622600038601,"NVE:vatnLnr:3281",3281,11.3622600038601,"Aurskog-Høland","Akershus","NOR"
"Aklangen",60.1658480951368,10.5437951278856,"NVE:vatnLnr:67987",67987,10.5437951278856,"Ringerike","Buskerud","NOR"
"Sørsåssjøen",60.7590092398629,11.8132820648429,"NVE:vatnLnr:3716",3716,11.8132820648429,"Våler","Hedmark","NOR"
